,OBJECTID,ULAND,UREGBEZ,UKREIS,UGEMEINDE,UJAHR,UMONAT,USTUNDE,UWOCHENTAG,UKATEGORIE,UART,UTYP1,ULICHTVERH,IstRad,IstPKW,IstFuss,IstKrad,IstGkfz,IstSonstige,STRZUSTAND,lon,lat,address,City,District,Street,HouseNumber,PostalCode
0,112747,11,0,3,3,2018,1,15,4,3,6,7,1,1,0,1,0,0,0,1,13.403227969440675,52.583471535605504,"{'City': 'Berlin', 'District': 'Niederschönhausen', 'Street': 'Dietzgenstraße', 'HouseNumber': '36A', 'PostalCode': '13156'}",Berlin,Niederschönhausen,Dietzgenstraße,36A,13156
1,112892,11,0,3,3,2018,1,11,5,3,5,2,0,1,1,0,0,0,0,1,13.432186282183157,52.535255261250875,"{'City': 'Berlin', 'District': 'Prenzlauer Berg', 'Street': 'Greifswalder Straße', 'HouseNumber': '45', 'PostalCode': '10405'}",Berlin,Prenzlauer Berg,Greifswalder Straße,45,10405
2,112902,11,0,2,2,2018,1,8,2,3,5,2,0,1,1,0,0,0,0,0,13.47089658738229,52.514173124637104,"{'City': 'Berlin', 'District': 'Friedrichshain', 'Street': 'Frankfurter Allee', 'HouseNumber': '87', 'PostalCode': '10247'}",Berlin,Friedrichshain,Frankfurter Allee,87,10247
3,112921,11,0,1,1,2018,1,19,4,3,5,7,2,1,1,0,0,0,0,1,13.39467344912885,52.510848452164254,"{'City': 'Berlin', 'District': 'Mitte', 'Street': 'Leipziger Straße', 'HouseNumber': '', 'PostalCode': '10117'}",Berlin,Mitte,Leipziger Straße,,10117
4,112947,11,0,9,9,2018,1,18,4,2,5,3,2,1,1,0,0,0,0,1,13.506372166134057,52.458992961679954,"{'City': 'Berlin', 'District': 'Niederschöneweide', 'Street': 'Schnellerstraße', 'HouseNumber': '', 'PostalCode': '12439'}",Berlin,Niederschöneweide,Schnellerstraße,,12439
5,112992,11,0,2,2,2018,1,11,7,3,6,4,0,1,0,1,0,0,0,0,13.448554440855105,52.504955329689665,"{'City': 'Berlin', 'District': 'Friedrichshain', 'Street': 'Warschauer Straße', 'HouseNumber': '34', 'PostalCode': '10243'}",Berlin,Friedrichshain,Warschauer Straße,34,10243
6,113009,11,0,1,1,2018,1,8,3,3,5,3,0,1,1,0,0,0,0,1,13.373030297408992,52.51591280231045,"{'City': 'Berlin', 'District': 'Tiergarten', 'Street': 'Straße des 17. Juni', 'HouseNumber': '', 'PostalCode': '10785'}",Berlin,Tiergarten,Straße des 17. Juni,,10785
7,113235,11,0,1,1,2018,1,12,2,3,5,3,0,1,0,0,0,0,1,0,13.41769328202078,52.523445715565614,"{'City': 'Berlin', 'District': 'Mitte', 'Street': 'Otto-Braun-Straße', 'HouseNumber': '', 'PostalCode': '10178'}",Berlin,Mitte,Otto-Braun-Straße,,10178
8,113267,11,0,3,3,2018,1,8,2,3,6,4,0,1,0,1,0,0,0,0,13.433537462368651,52.536115923506884,"{'City': 'Berlin', 'District': 'Prenzlauer Berg', 'Street': 'Danziger Straße', 'HouseNumber': '119', 'PostalCode': '10407'}",Berlin,Prenzlauer Berg,Danziger Straße,119,10407
9,113277,11,0,2,2,2018,1,8,5,3,5,3,0,1,1,0,0,0,0,1,13.453670058579055,52.518830862795426,"{'City': 'Berlin', 'District': 'Friedrichshain', 'Street': '', 'HouseNumber': '', 'PostalCode': '10249'}",Berlin,Friedrichshain,,,10249
10,113314,11,0,2,2,2018,1,8,5,2,5,3,0,1,1,0,0,0,0,1,13.436527470777667,52.51764210481606,"{'City': 'Berlin', 'District': 'Friedrichshain', 'Street': 'Karl-Marx-Allee', 'HouseNumber': '', 'PostalCode': '10243'}",Berlin,Friedrichshain,Karl-Marx-Allee,,10243
11,113324,11,0,7,7,2018,1,6,3,1,5,2,2,1,0,0,0,1,0,1,13.357186281683301,52.486900051899255,"{'City': 'Berlin', 'District': 'Schöneberg', 'Street': 'Hauptstraße', 'HouseNumber': '', 'PostalCode': '10827'}",Berlin,Schöneberg,Hauptstraße,,10827
12,113425,11,0,3,3,2018,1,11,6,3,1,5,0,1,1,0,0,0,0,0,13.428509205565545,52.53209045875865,"{'City': 'Berlin', 'District': 'Prenzlauer Berg', 'Street': 'Greifswalder Straße', 'HouseNumber': '27', 'PostalCode': '10405'}",Berlin,Prenzlauer Berg,Greifswalder Straße,27,10405
13,113473,11,0,7,7,2018,1,16,5,2,5,3,0,1,1,0,0,0,0,1,13.353232747105048,52.479704519840794,"{'City': 'Berlin', 'District': 'Schöneberg', 'Street': 'Sachsendamm', 'HouseNumber': '', 'PostalCode': '10829'}",Berlin,Schöneberg,Sachsendamm,,10829
14,113484,11,0,7,7,2018,1,10,4,2,5,3,0,1,1,0,0,0,0,1,13.375945866470666,52.42985298833909,"{'City': 'Berlin', 'District': 'Mariendorf', 'Street': '', 'HouseNumber': '', 'PostalCode': '12277'}",Berlin,Mariendorf,,,12277
15,113516,11,0,1,1,2018,1,6,3,3,5,3,2,1,1,0,0,0,0,0,13.417718712673617,52.52346813184221,"{'City': 'Berlin', 'District': 'Mitte', 'Street': 'Otto-Braun-Straße', 'HouseNumber': '', 'PostalCode': '10178'}",Berlin,Mitte,Otto-Braun-Straße,,10178
16,113631,11,0,2,2,2018,1,10,7,2,5,3,0,1,1,0,0,0,0,0,13.460259548607276,52.51509808818967,"{'City': 'Berlin', 'District': 'Friedrichshain', 'Street': 'Frankfurter Allee', 'HouseNumber': '', 'PostalCode': '10247'}",Berlin,Friedrichshain,Frankfurter Allee,,10247
17,113820,11,0,10,10,2018,1,15,5,3,5,2,0,1,1,0,0,0,0,0,13.57994695595187,52.505078994748835,"{'City': 'Berlin', 'District': 'Kaulsdorf', 'Street': 'Alt-Kaulsdorf', 'HouseNumber': '2', 'PostalCode': '12621'}",Berlin,Kaulsdorf,Alt-Kaulsdorf,2,12621
18,113844,11,0,9,9,2018,1,8,2,3,5,2,0,1,1,0,0,0,0,0,13.510905418097803,52.45581365029534,"{'City': 'Berlin', 'District': 'Niederschöneweide', 'Street': 'Spreestraße', 'HouseNumber': '', 'PostalCode': '12439'}",Berlin,Niederschöneweide,Spreestraße,,12439
19,113855,11,0,12,12,2018,1,6,5,3,5,2,0,1,1,0,0,0,0,1,13.311320405080306,52.6276208437254,"{'City': 'Berlin', 'District': 'Hermsdorf', 'Street': 'Veltheimstraße', 'HouseNumber': '', 'PostalCode': '13467'}",Berlin,Hermsdorf,Veltheimstraße,,13467
20,114018,11,0,1,1,2018,11,18,2,3,3,6,2,1,1,0,0,0,0,0,13.415931434270965,52.522199522664565,"{'City': 'Berlin', 'District': 'Mitte', 'Street': 'Alexanderplatz', 'HouseNumber': '', 'PostalCode': '10178'}",Berlin,Mitte,Alexanderplatz,,10178
21,114019,11,0,7,7,2018,8,19,5,3,5,2,0,1,1,0,0,0,0,0,13.352133033505577,52.48010314228454,"{'City': 'Berlin', 'District': 'Schöneberg', 'Street': 'Dominicusstraße', 'HouseNumber': '', 'PostalCode': '10827'}",Berlin,Schöneberg,Dominicusstraße,,10827
22,114021,11,0,1,1,2018,10,22,6,3,1,5,2,1,1,0,0,0,0,0,13.394623874053666,52.51731745146053,"{'City': 'Berlin', 'District': 'Mitte', 'Street': 'Unter den Linden', 'HouseNumber': '7', 'PostalCode': '10117'}",Berlin,Mitte,Unter den Linden,7,10117
23,114023,11,0,2,2,2018,4,19,2,2,3,6,0,1,0,0,0,0,0,0,13.465114408224407,52.514754074163754,"{'City': 'Berlin', 'District': 'Friedrichshain', 'Street': 'Frankfurter Allee', 'HouseNumber': '53', 'PostalCode': '10247'}",Berlin,Friedrichshain,Frankfurter Allee,53,10247
24,114025,11,0,10,10,2018,5,14,4,2,5,3,0,1,1,0,0,0,0,0,13.556285309720177,52.50882798673321,"{'City': 'Berlin', 'District': 'Biesdorf', 'Street': '', 'HouseNumber': '', 'PostalCode': '12683'}",Berlin,Biesdorf,,,12683
25,114039,11,0,7,7,2018,4,21,4,3,2,6,2,1,1,0,0,0,0,0,13.360697758955077,52.49088683716263,"{'City': 'Berlin', 'District': 'Schöneberg', 'Street': 'Hauptstraße', 'HouseNumber': '162', 'PostalCode': '10827'}",Berlin,Schöneberg,Hauptstraße,162,10827
26,114040,11,0,7,7,2018,3,17,1,3,5,2,0,1,1,0,0,0,0,0,13.36178399108245,52.41364201664507,"{'City': 'Berlin', 'District': 'Marienfelde', 'Street': 'Friedenfelser Straße', 'HouseNumber': '13', 'PostalCode': '12279'}",Berlin,Marienfelde,Friedenfelser Straße,13,12279
27,114046,11,0,7,7,2018,8,17,6,3,5,3,0,1,1,0,0,0,0,0,13.38654428839097,52.442086942479975,"{'City': 'Berlin', 'District': 'Mariendorf', 'Street': 'Mariendorfer Damm', 'HouseNumber': '114', 'PostalCode': '12109'}",Berlin,Mariendorf,Mariendorfer Damm,114,12109
28,114051,11,0,2,2,2018,5,18,5,3,6,4,0,1,0,1,0,0,0,0,13.446792252532443,52.51660581666179,"{'City': 'Berlin', 'District': 'Friedrichshain', 'Street': 'Karl-Marx-Allee', 'HouseNumber': '', 'PostalCode': '10243'}",Berlin,Friedrichshain,Karl-Marx-Allee,,10243
29,114057,11,0,2,2,2018,7,15,7,3,9,1,0,1,0,0,0,0,0,0,13.453418963234334,52.51810940190582,"{'City': 'Berlin', 'District': 'Friedrichshain', 'Street': 'Petersburger Straße', 'HouseNumber': '83', 'PostalCode': '10247'}",Berlin,Friedrichshain,Petersburger Straße,83,10247
30,114059,11,0,2,2,2018,5,18,6,3,0,6,0,1,0,1,0,0,0,0,13.448599242227662,52.505028272386205,"{'City': 'Berlin', 'District': 'Friedrichshain', 'Street': 'Warschauer Straße', 'HouseNumber': '34', 'PostalCode': '10243'}",Berlin,Friedrichshain,Warschauer Straße,34,10243
31,114060,11,0,7,7,2018,10,13,5,3,5,3,0,1,1,0,0,0,0,0,13.361786459850997,52.41364488811485,"{'City': 'Berlin', 'District': 'Marienfelde', 'Street': 'Friedenfelser Straße', 'HouseNumber': '13', 'PostalCode': '12279'}",Berlin,Marienfelde,Friedenfelser Straße,13,12279
32,114072,11,0,3,3,2018,12,18,6,3,5,7,2,1,1,0,0,0,0,1,13.424289823843024,52.5392780800006,"{'City': 'Berlin', 'District': 'Prenzlauer Berg', 'Street': 'Danziger Straße', 'HouseNumber': '', 'PostalCode': '10405'}",Berlin,Prenzlauer Berg,Danziger Straße,,10405
33,114073,11,0,1,1,2018,9,17,2,3,5,3,1,1,0,0,0,0,0,1,13.422733014038196,52.52023483254443,"{'City': 'Berlin', 'District': 'Mitte', 'Street': 'Karl-Marx-Allee', 'HouseNumber': '', 'PostalCode': '10178'}",Berlin,Mitte,Karl-Marx-Allee,,10178
34,114075,11,0,4,4,2018,6,15,3,3,1,5,0,1,1,0,0,0,0,0,13.265814963298396,52.50896847251725,"{'City': 'Berlin', 'District': 'Westend', 'Street': 'Heerstraße', 'HouseNumber': '', 'PostalCode': '14052'}",Berlin,Westend,Heerstraße,,14052
35,114078,11,0,2,2,2018,3,8,6,3,6,6,0,1,0,1,0,0,0,0,13.387802842311102,52.49329164597755,"{'City': 'Berlin', 'District': 'Kreuzberg', 'Street': '', 'HouseNumber': '', 'PostalCode': '10961'}",Berlin,Kreuzberg,,,10961
36,114079,11,0,2,2,2018,11,19,7,3,6,7,2,1,0,1,0,0,0,0,13.448654659410641,52.50511849835348,"{'City': 'Berlin', 'District': 'Friedrichshain', 'Street': 'Warschauer Straße', 'HouseNumber': '', 'PostalCode': '10243'}",Berlin,Friedrichshain,Warschauer Straße,,10243
37,114087,11,0,12,12,2018,3,17,6,3,5,3,1,1,1,0,0,0,0,0,13.364725549856798,52.56209019194615,"{'City': 'Berlin', 'District': 'Reinickendorf', 'Street': 'Markstraße', 'HouseNumber': '10', 'PostalCode': '13409'}",Berlin,Reinickendorf,Markstraße,10,13409
38,114088,11,0,3,3,2018,12,5,1,3,6,4,2,1,0,1,0,0,0,1,13.411973653003058,52.54113816389338,"{'City': 'Berlin', 'District': 'Prenzlauer Berg', 'Street': 'Eberswalder Straße', 'HouseNumber': '', 'PostalCode': '10435'}",Berlin,Prenzlauer Berg,Eberswalder Straße,,10435
39,114090,11,0,3,3,2018,8,20,5,3,3,6,1,1,1,0,0,0,0,1,13.423086290843116,52.527527415004634,"{'City': 'Berlin', 'District': 'Friedrichshain', 'Street': 'Otto-Braun-Straße', 'HouseNumber': '90', 'PostalCode': '10249'}",Berlin,Friedrichshain,Otto-Braun-Straße,90,10249
40,114092,11,0,1,1,2018,7,16,3,3,0,7,0,1,0,0,0,0,1,0,13.368846225641116,52.54119317709442,"{'City': 'Berlin', 'District': 'Wedding', 'Street': 'Fennstraße', 'HouseNumber': '', 'PostalCode': '13347'}",Berlin,Wedding,Fennstraße,,13347
41,114095,11,0,3,3,2018,6,16,5,2,0,2,0,1,1,0,0,0,0,0,13.413569047157822,52.55860859185864,"{'City': 'Berlin', 'District': 'Pankow', 'Street': 'B96A', 'HouseNumber': '', 'PostalCode': '13189'}",Berlin,Pankow,B96A,,13189
42,114099,11,0,3,3,2018,3,19,6,2,0,1,2,1,0,0,0,0,0,0,13.398221427827442,52.57101300804412,"{'City': 'Berlin', 'District': 'Niederschönhausen', 'Street': 'Grabbeallee', 'HouseNumber': '', 'PostalCode': '13156'}",Berlin,Niederschönhausen,Grabbeallee,,13156
43,114105,11,0,5,5,2018,10,13,2,3,4,6,0,1,0,0,0,0,0,0,13.146628310394654,52.49389637754741,"{'City': 'Berlin', 'District': 'Gatow', 'Street': 'Potsdamer Chaussee', 'HouseNumber': '', 'PostalCode': '14089'}",Berlin,Gatow,Potsdamer Chaussee,,14089
44,114108,11,0,1,1,2018,9,17,6,3,6,6,0,1,0,1,0,0,0,0,13.364403790600262,52.50159519485834,"{'City': 'Berlin', 'District': 'Tiergarten', 'Street': 'Potsdamer Straße', 'HouseNumber': '91', 'PostalCode': '10785'}",Berlin,Tiergarten,Potsdamer Straße,91,10785
45,114109,11,0,3,3,2018,8,18,4,3,2,2,0,1,0,0,1,0,0,0,13.432200142121747,52.53526723383022,"{'City': 'Berlin', 'District': 'Prenzlauer Berg', 'Street': 'Greifswalder Straße', 'HouseNumber': '', 'PostalCode': '10405'}",Berlin,Prenzlauer Berg,Greifswalder Straße,,10405
46,114110,11,0,7,7,2018,6,14,7,2,2,6,0,1,1,0,0,0,1,0,13.35963316312731,52.48957961407677,"{'City': 'Berlin', 'District': 'Schöneberg', 'Street': 'Hauptstraße', 'HouseNumber': '157', 'PostalCode': '10827'}",Berlin,Schöneberg,Hauptstraße,157,10827
47,114114,11,0,3,3,2018,4,20,3,3,6,4,2,1,0,1,0,0,0,0,13.41410612425603,52.5507491030779,"{'City': 'Berlin', 'District': 'Prenzlauer Berg', 'Street': 'Schönhauser Allee', 'HouseNumber': '', 'PostalCode': '10439'}",Berlin,Prenzlauer Berg,Schönhauser Allee,,10439
48,114115,11,0,3,3,2018,12,9,6,3,3,6,0,1,0,0,0,0,0,0,13.413461501240112,52.54907073209556,"{'City': 'Berlin', 'District': 'Prenzlauer Berg', 'Street': 'Schönhauser Allee', 'HouseNumber': '118', 'PostalCode': '10437'}",Berlin,Prenzlauer Berg,Schönhauser Allee,118,10437
49,114116,11,0,2,2,2018,9,18,5,3,6,4,1,1,0,1,0,0,0,0,13.448508748365986,52.50488093689996,"{'City': 'Berlin', 'District': 'Friedrichshain', 'Street': 'Warschauer Straße', 'HouseNumber': '', 'PostalCode': '10243'}",Berlin,Friedrichshain,Warschauer Straße,,10243
50,114118,11,0,10,10,2018,7,16,5,3,0,2,0,1,1,0,0,0,0,0,13.610453994680158,52.504790118242994,"{'City': 'Berlin', 'District': 'Mahlsdorf', 'Street': 'Alt-Mahlsdorf', 'HouseNumber': '', 'PostalCode': '12623'}",Berlin,Mahlsdorf,Alt-Mahlsdorf,,12623
51,114119,11,0,2,2,2018,7,9,5,3,5,2,0,1,1,0,0,0,0,1,13.453740267772934,52.515938626636306,"{'City': 'Berlin', 'District': 'Friedrichshain', 'Street': 'Frankfurter Tor', 'HouseNumber': '', 'PostalCode': '10243'}",Berlin,Friedrichshain,Frankfurter Tor,,10243
52,114122,11,0,3,3,2018,11,6,4,3,5,3,2,1,1,0,0,0,0,1,13.436956492596519,52.539736041361934,"{'City': 'Berlin', 'District': 'Prenzlauer Berg', 'Street': 'Greifswalder Straße', 'HouseNumber': '', 'PostalCode': '10405'}",Berlin,Prenzlauer Berg,Greifswalder Straße,,10405
53,114123,11,0,10,10,2018,8,13,6,3,5,2,0,1,1,0,0,0,0,0,13.553421622672326,52.509344890308626,"{'City': 'Berlin', 'District': 'Biesdorf', 'Street': '', 'HouseNumber': '', 'PostalCode': '12683'}",Berlin,Biesdorf,,,12683
54,114126,11,0,7,7,2018,7,14,2,3,3,6,0,1,1,0,0,0,0,0,13.353902501631097,52.48507585377823,"{'City': 'Berlin', 'District': 'Schöneberg', 'Street': 'Hauptstraße', 'HouseNumber': '30', 'PostalCode': '10827'}",Berlin,Schöneberg,Hauptstraße,30,10827
55,114129,11,0,11,11,2018,10,18,3,3,5,3,2,1,1,0,0,0,0,1,13.47728559908658,52.513383540751285,"{'City': 'Berlin', 'District': 'Lichtenberg', 'Street': 'Frankfurter Allee', 'HouseNumber': '', 'PostalCode': '10365'}",Berlin,Lichtenberg,Frankfurter Allee,,10365
56,114136,11,0,11,11,2018,6,17,2,3,5,2,0,1,1,0,0,0,0,0,13.477426776014996,52.51351529730191,"{'City': 'Berlin', 'District': 'Lichtenberg', 'Street': 'Möllendorffstraße', 'HouseNumber': '1', 'PostalCode': '10367'}",Berlin,Lichtenberg,Möllendorffstraße,1,10367
57,114138,11,0,1,1,2018,5,8,5,3,2,4,0,1,0,1,0,0,0,0,13.378504958973217,52.50963693348586,"{'City': 'Berlin', 'District': 'Mitte', 'Street': 'Leipziger Straße', 'HouseNumber': '', 'PostalCode': '10117'}",Berlin,Mitte,Leipziger Straße,,10117
58,114141,11,0,2,2,2018,9,9,6,3,5,2,0,1,1,0,0,0,0,0,13.467407032029088,52.514371313220494,"{'City': 'Berlin', 'District': 'Friedrichshain', 'Street': '', 'HouseNumber': '', 'PostalCode': '10247'}",Berlin,Friedrichshain,,,10247
59,114142,11,0,1,1,2018,9,20,7,3,1,5,2,1,1,0,0,0,1,0,13.397249287691588,52.51086976077338,"{'City': 'Berlin', 'District': 'Mitte', 'Street': 'Leipziger Straße', 'HouseNumber': '46', 'PostalCode': '10117'}",Berlin,Mitte,Leipziger Straße,46,10117
60,114143,11,0,3,3,2018,7,21,5,3,5,3,2,1,1,0,0,0,0,0,13.398354075243043,52.57105112319841,"{'City': 'Berlin', 'District': 'Niederschönhausen', 'Street': 'Grabbeallee', 'HouseNumber': '', 'PostalCode': '13156'}",Berlin,Niederschönhausen,Grabbeallee,,13156
61,114144,11,0,2,2,2018,3,10,3,3,6,4,0,1,0,1,0,0,0,0,13.465061828746931,52.51475935303004,"{'City': 'Berlin', 'District': 'Friedrichshain', 'Street': 'Frankfurter Allee', 'HouseNumber': '53', 'PostalCode': '10247'}",Berlin,Friedrichshain,Frankfurter Allee,53,10247
62,114147,11,0,3,3,2018,5,14,6,3,5,2,0,1,1,0,0,0,0,0,13.423968988599444,52.53910743797444,"{'City': 'Berlin', 'District': 'Prenzlauer Berg', 'Street': 'Prenzlauer Allee', 'HouseNumber': '', 'PostalCode': '10405'}",Berlin,Prenzlauer Berg,Prenzlauer Allee,,10405
63,114152,11,0,4,4,2018,3,9,2,3,0,1,0,1,0,0,0,0,0,2,13.316326961422977,52.5121291596189,"{'City': 'Berlin', 'District': 'Charlottenburg', 'Street': 'Bismarckstraße', 'HouseNumber': '108', 'PostalCode': '10625'}",Berlin,Charlottenburg,Bismarckstraße,108,10625
64,114157,11,0,2,2,2018,6,17,6,3,5,2,0,1,1,0,0,0,0,0,13.388964681493082,52.49754575050795,"{'City': 'Berlin', 'District': 'Kreuzberg', 'Street': 'Mehringdamm', 'HouseNumber': '', 'PostalCode': '10961'}",Berlin,Kreuzberg,Mehringdamm,,10961
65,114161,11,0,3,3,2018,6,17,2,3,5,3,0,1,0,0,0,0,0,0,13.432307900513715,52.535360067074144,"{'City': 'Berlin', 'District': 'Prenzlauer Berg', 'Street': 'Greifswalder Straße', 'HouseNumber': '', 'PostalCode': '10405'}",Berlin,Prenzlauer Berg,Greifswalder Straße,,10405
66,114162,11,0,2,2,2018,7,10,6,3,5,2,0,1,1,0,0,0,0,0,13.45247843083056,52.518408540530885,"{'City': 'Berlin', 'District': 'Friedrichshain', 'Street': 'Bersarinplatz', 'HouseNumber': '', 'PostalCode': '10249'}",Berlin,Friedrichshain,Bersarinplatz,,10249
67,114168,11,0,2,2,2018,8,15,2,2,4,7,0,1,0,0,0,0,0,0,13.438811679111463,52.517261582132484,"{'City': 'Berlin', 'District': 'Friedrichshain', 'Street': 'Karl-Marx-Allee', 'HouseNumber': '82', 'PostalCode': '10243'}",Berlin,Friedrichshain,Karl-Marx-Allee,82,10243
68,114170,11,0,3,3,2018,4,18,1,3,6,7,0,1,0,1,0,0,0,1,13.445718380853062,52.54611942618238,"{'City': 'Berlin', 'District': 'Prenzlauer Berg', 'Street': 'Greifswalder Straße', 'HouseNumber': '137', 'PostalCode': '10409'}",Berlin,Prenzlauer Berg,Greifswalder Straße,137,10409
69,114175,11,0,1,1,2018,9,8,3,3,2,6,0,1,1,0,0,0,0,0,13.365935027577093,52.554590067625625,"{'City': 'Berlin', 'District': 'Wedding', 'Street': '', 'HouseNumber': '', 'PostalCode': '13347'}",Berlin,Wedding,,,13347
70,114176,11,0,6,6,2018,8,12,4,2,5,2,0,1,1,0,0,0,0,0,13.260564456075826,52.43498453184021,"{'City': 'Berlin', 'District': 'Zehlendorf', 'Street': 'B1', 'HouseNumber': '', 'PostalCode': '14169'}",Berlin,Zehlendorf,B1,,14169
71,114177,11,0,1,1,2018,6,20,4,3,0,3,0,1,0,0,1,0,0,0,13.404768032087635,52.51988375782634,"{'City': 'Berlin', 'District': 'Mitte', 'Street': '', 'HouseNumber': '', 'PostalCode': '10178'}",Berlin,Mitte,,,10178
72,114183,11,0,4,4,2018,10,13,3,3,6,7,0,1,0,1,0,0,0,0,13.323222838413866,52.512567408396244,"{'City': 'Berlin', 'District': 'Charlottenburg', 'Street': 'Straße des 17. Juni', 'HouseNumber': '149', 'PostalCode': '10623'}",Berlin,Charlottenburg,Straße des 17. Juni,149,10623
73,114185,11,0,2,2,2018,7,11,2,3,5,2,0,1,0,0,0,0,1,0,13.389262193009657,52.49749704496645,"{'City': 'Berlin', 'District': 'Kreuzberg', 'Street': 'Mehringdamm', 'HouseNumber': '', 'PostalCode': '10961'}",Berlin,Kreuzberg,Mehringdamm,,10961
74,114187,11,0,11,11,2018,7,8,5,3,2,2,0,1,1,0,0,0,0,0,13.477493905251118,52.51350874152026,"{'City': 'Berlin', 'District': 'Lichtenberg', 'Street': 'Möllendorffstraße', 'HouseNumber': '1', 'PostalCode': '10367'}",Berlin,Lichtenberg,Möllendorffstraße,1,10367
75,114188,11,0,10,10,2018,3,7,3,3,4,6,0,1,0,0,0,0,0,1,13.551789099638444,52.50918021944253,"{'City': 'Berlin', 'District': 'Biesdorf', 'Street': 'Alt-Biesdorf', 'HouseNumber': '14', 'PostalCode': '12683'}",Berlin,Biesdorf,Alt-Biesdorf,14,12683
76,114189,11,0,3,3,2018,5,8,3,2,5,2,0,1,1,0,0,0,0,0,13.412322178253136,52.541093141539086,"{'City': 'Berlin', 'District': 'Prenzlauer Berg', 'Street': 'Schönhauser Allee', 'HouseNumber': '', 'PostalCode': '10437'}",Berlin,Prenzlauer Berg,Schönhauser Allee,,10437
77,114191,11,0,4,4,2018,2,9,4,3,5,2,0,1,1,0,0,0,0,0,13.297268719455767,52.511071085538774,"{'City': 'Berlin', 'District': 'Charlottenburg', 'Street': '', 'HouseNumber': '', 'PostalCode': '14059'}",Berlin,Charlottenburg,,,14059
78,114192,11,0,1,1,2018,11,8,6,3,0,2,0,1,1,0,0,0,0,0,13.420084625756209,52.521053947149156,"{'City': 'Berlin', 'District': 'Mitte', 'Street': 'Karl-Marx-Allee', 'HouseNumber': '', 'PostalCode': '10178'}",Berlin,Mitte,Karl-Marx-Allee,,10178
79,114196,11,0,9,9,2018,6,4,7,3,5,3,1,1,1,0,0,0,0,0,13.460599876749553,52.4940085449026,"{'City': 'Berlin', 'District': 'Alt-Treptow', 'Street': 'Martin-Hoffmann-Straße', 'HouseNumber': '', 'PostalCode': '12435'}",Berlin,Alt-Treptow,Martin-Hoffmann-Straße,,12435
80,114199,11,0,3,3,2018,4,16,3,3,5,2,0,1,1,0,0,0,0,0,13.414617571915853,52.55620800430433,"{'City': 'Berlin', 'District': 'Prenzlauer Berg', 'Street': 'Berliner Straße', 'HouseNumber': '83', 'PostalCode': '13189'}",Berlin,Prenzlauer Berg,Berliner Straße,83,13189
81,114202,11,0,3,3,2018,9,20,5,3,3,6,2,1,0,0,0,0,0,0,13.414801475638136,52.55480048327871,"{'City': 'Berlin', 'District': 'Prenzlauer Berg', 'Street': 'Berliner Straße', 'HouseNumber': '77', 'PostalCode': '13189'}",Berlin,Prenzlauer Berg,Berliner Straße,77,13189
82,114203,11,0,2,2,2018,7,20,4,3,4,6,1,1,0,0,0,0,0,0,13.447600109022385,52.50363653991685,"{'City': 'Berlin', 'District': 'Friedrichshain', 'Street': 'Warschauer Straße', 'HouseNumber': '46', 'PostalCode': '10243'}",Berlin,Friedrichshain,Warschauer Straße,46,10243
83,114204,11,0,2,2,2018,7,13,4,3,0,1,0,1,0,0,0,0,0,0,13.453751546333368,52.51590209545627,"{'City': 'Berlin', 'District': 'Friedrichshain', 'Street': 'Frankfurter Tor', 'HouseNumber': '', 'PostalCode': '10243'}",Berlin,Friedrichshain,Frankfurter Tor,,10243
84,114205,11,0,7,7,2018,5,17,4,3,5,2,0,1,0,0,0,0,1,0,13.385787585597473,52.481164056536805,"{'City': 'Berlin', 'District': 'Tempelhof', 'Street': 'Tempelhofer Damm', 'HouseNumber': '20', 'PostalCode': '12101'}",Berlin,Tempelhof,Tempelhofer Damm,20,12101
85,114211,11,0,3,3,2018,8,16,4,3,2,6,0,1,1,0,0,0,1,0,13.39841492677932,52.5777325645636,"{'City': 'Berlin', 'District': 'Niederschönhausen', 'Street': 'Grabbeallee', 'HouseNumber': '64', 'PostalCode': '13156'}",Berlin,Niederschönhausen,Grabbeallee,64,13156
86,114213,11,0,1,1,2018,4,15,5,3,5,3,0,1,1,0,0,0,0,1,13.418453018084097,52.52411535525973,"{'City': 'Berlin', 'District': 'Mitte', 'Street': 'Otto-Braun-Straße', 'HouseNumber': '', 'PostalCode': '10178'}",Berlin,Mitte,Otto-Braun-Straße,,10178
87,114214,11,0,3,3,2018,5,17,4,3,5,3,0,1,1,0,0,0,0,0,13.428220313635151,52.54713838785758,"{'City': 'Berlin', 'District': 'Prenzlauer Berg', 'Street': 'Prenzlauer Allee', 'HouseNumber': '172', 'PostalCode': '10409'}",Berlin,Prenzlauer Berg,Prenzlauer Allee,172,10409
88,114215,11,0,4,4,2018,12,12,4,3,5,2,0,1,1,0,0,0,0,0,13.301365565436427,52.511151328885646,"{'City': 'Berlin', 'District': 'Charlottenburg', 'Street': 'Bismarckstraße', 'HouseNumber': '', 'PostalCode': '10627'}",Berlin,Charlottenburg,Bismarckstraße,,10627
89,114225,11,0,10,10,2018,8,16,7,3,5,7,0,1,1,0,0,0,0,0,13.588443356848476,52.50499909418685,"{'City': 'Berlin', 'District': 'Kaulsdorf', 'Street': 'Alt-Kaulsdorf', 'HouseNumber': '50', 'PostalCode': '12621'}",Berlin,Kaulsdorf,Alt-Kaulsdorf,50,12621
90,114226,11,0,3,3,2018,4,21,6,3,5,2,2,1,0,0,0,0,1,0,13.414792043798661,52.55501687013629,"{'City': 'Berlin', 'District': 'Prenzlauer Berg', 'Street': 'Berliner Straße', 'HouseNumber': '77', 'PostalCode': '13189'}",Berlin,Prenzlauer Berg,Berliner Straße,77,13189
91,114227,11,0,2,2,2018,3,20,4,3,1,5,2,1,1,0,0,0,0,1,13.38677237524369,52.498110682419764,"{'City': 'Berlin', 'District': 'Kreuzberg', 'Street': 'Tempelhofer Ufer', 'HouseNumber': '8', 'PostalCode': '10963'}",Berlin,Kreuzberg,Tempelhofer Ufer,8,10963
92,114231,11,0,4,4,2018,8,12,5,3,0,7,0,1,0,0,0,0,0,0,13.285793492861545,52.5101781992414,"{'City': 'Berlin', 'District': 'Charlottenburg', 'Street': 'Kaiserdamm', 'HouseNumber': '', 'PostalCode': '14057'}",Berlin,Charlottenburg,Kaiserdamm,,14057
93,114237,11,0,9,9,2018,9,16,2,3,0,2,0,1,1,0,0,0,0,0,13.45770576104068,52.491711800247224,"{'City': 'Berlin', 'District': 'Alt-Treptow', 'Street': 'Elsenstraße', 'HouseNumber': '', 'PostalCode': '12435'}",Berlin,Alt-Treptow,Elsenstraße,,12435
94,114238,11,0,7,7,2018,6,16,1,2,0,1,0,1,0,0,0,0,0,0,13.387742670284284,52.438771738159865,"{'City': 'Berlin', 'District': 'Mariendorf', 'Street': 'Mariendorfer Damm', 'HouseNumber': '', 'PostalCode': '12107'}",Berlin,Mariendorf,Mariendorfer Damm,,12107
95,114239,11,0,12,12,2018,7,20,6,2,0,1,0,1,0,0,0,0,0,0,13.31649059585317,52.617010060051605,"{'City': 'Berlin', 'District': 'Hermsdorf', 'Street': 'Berliner Straße', 'HouseNumber': '123', 'PostalCode': '13467'}",Berlin,Hermsdorf,Berliner Straße,123,13467
96,114240,11,0,2,2,2018,5,19,5,3,5,2,0,1,1,0,0,0,0,0,13.389275622096035,52.49744300807308,"{'City': 'Berlin', 'District': 'Kreuzberg', 'Street': 'Mehringdamm', 'HouseNumber': '', 'PostalCode': '10961'}",Berlin,Kreuzberg,Mehringdamm,,10961
97,114251,11,0,3,3,2018,11,15,6,3,5,3,1,1,0,0,0,0,1,1,13.403575696388078,52.56925577076765,"{'City': 'Berlin', 'District': 'Pankow', 'Street': 'Breite Straße', 'HouseNumber': '', 'PostalCode': '13187'}",Berlin,Pankow,Breite Straße,,13187
98,114255,11,0,3,3,2018,7,16,3,3,0,1,0,1,0,0,0,0,0,0,13.426740347969945,52.54324756066687,"{'City': 'Berlin', 'District': 'Prenzlauer Berg', 'Street': 'Prenzlauer Allee', 'HouseNumber': '81', 'PostalCode': '10405'}",Berlin,Prenzlauer Berg,Prenzlauer Allee,81,10405
99,114256,11,0,11,11,2018,6,17,4,3,6,4,0,1,0,1,0,0,0,0,13.475804327601137,52.51352369285797,"{'City': 'Berlin', 'District': 'Lichtenberg', 'Street': '', 'HouseNumber': '', 'PostalCode': '10365'}",Berlin,Lichtenberg,,,10365
100,114257,11,0,6,6,2018,5,11,2,2,3,2,0,1,1,0,0,0,0,0,13.17512890521556,52.41990519958368,"{'City': 'Berlin', 'District': 'Wannsee', 'Street': '', 'HouseNumber': '', 'PostalCode': '14109'}",Berlin,Wannsee,,,14109
101,114261,11,0,4,4,2018,2,7,3,3,5,2,0,1,1,0,0,0,0,0,13.24215593704138,52.507521352967785,"{'City': 'Berlin', 'District': 'Westend', 'Street': 'Heerstraße', 'HouseNumber': '', 'PostalCode': '14055'}",Berlin,Westend,Heerstraße,,14055
102,114262,11,0,10,10,2018,7,14,1,3,5,2,0,1,1,0,0,0,0,0,13.62464770164363,52.503851308146224,"{'City': 'Berlin', 'District': 'Mahlsdorf', 'Street': 'Alt-Mahlsdorf', 'HouseNumber': '', 'PostalCode': '12623'}",Berlin,Mahlsdorf,Alt-Mahlsdorf,,12623
103,114263,11,0,2,2,2018,4,18,2,3,3,6,0,1,0,0,0,0,0,0,13.439012488906483,52.51724112210985,"{'City': 'Berlin', 'District': 'Friedrichshain', 'Street': 'Karl-Marx-Allee', 'HouseNumber': '84', 'PostalCode': '10243'}",Berlin,Friedrichshain,Karl-Marx-Allee,84,10243
104,114266,11,0,9,9,2018,5,0,2,2,5,3,2,1,1,0,0,0,0,0,13.513120243555132,52.45415032731726,"{'City': 'Berlin', 'District': 'Niederschöneweide', 'Street': 'Michael-Brückner-Straße', 'HouseNumber': '29', 'PostalCode': '12439'}",Berlin,Niederschöneweide,Michael-Brückner-Straße,29,12439
105,114270,11,0,10,10,2018,9,16,5,2,5,3,0,1,1,0,0,0,0,0,13.558260512833119,52.56285931521525,"{'City': 'Berlin', 'District': 'Marzahn', 'Street': 'Märkische Allee', 'HouseNumber': '', 'PostalCode': '12689'}",Berlin,Marzahn,Märkische Allee,,12689
106,114271,11,0,3,3,2018,8,10,3,3,6,4,0,1,0,1,0,0,0,0,13.440893966567891,52.543103190031715,"{'City': 'Berlin', 'District': 'Prenzlauer Berg', 'Street': 'Greifswalder Straße', 'HouseNumber': '158', 'PostalCode': '10409'}",Berlin,Prenzlauer Berg,Greifswalder Straße,158,10409
107,114272,11,0,1,1,2018,6,23,6,3,0,1,2,1,0,0,0,0,0,0,13.355478766818184,52.51480183004758,"{'City': 'Berlin', 'District': 'Tiergarten', 'Street': 'Straße des 17. Juni', 'HouseNumber': '', 'PostalCode': '10785'}",Berlin,Tiergarten,Straße des 17. Juni,,10785
108,114273,11,0,12,12,2018,6,17,6,3,5,2,0,1,1,0,0,0,0,0,13.364717981251948,52.5621314668665,"{'City': 'Berlin', 'District': 'Reinickendorf', 'Street': 'Markstraße', 'HouseNumber': '43', 'PostalCode': '13409'}",Berlin,Reinickendorf,Markstraße,43,13409
109,114274,11,0,2,2,2018,8,1,1,3,0,1,2,1,0,0,0,0,0,0,13.45217787256201,52.51102372574119,"{'City': 'Berlin', 'District': 'Friedrichshain', 'Street': 'Warschauer Straße', 'HouseNumber': '66', 'PostalCode': '10243'}",Berlin,Friedrichshain,Warschauer Straße,66,10243
110,114275,11,0,2,2,2018,5,8,4,3,3,6,0,1,0,0,0,0,0,0,13.463872156008257,52.514876739896344,"{'City': 'Berlin', 'District': 'Friedrichshain', 'Street': 'Frankfurter Allee', 'HouseNumber': '47', 'PostalCode': '10247'}",Berlin,Friedrichshain,Frankfurter Allee,47,10247
111,114279,11,0,3,3,2018,9,5,5,3,5,2,2,1,1,0,0,0,0,0,13.398144801270911,52.57112739666892,"{'City': 'Berlin', 'District': 'Niederschönhausen', 'Street': 'Heinrich-Mann-Straße', 'HouseNumber': '', 'PostalCode': '13156'}",Berlin,Niederschönhausen,Heinrich-Mann-Straße,,13156
112,114285,11,0,3,3,2018,8,19,5,3,0,1,1,1,0,0,0,0,1,0,13.401534639240227,52.58053402284936,"{'City': 'Berlin', 'District': 'Niederschönhausen', 'Street': 'Hermann-Hesse-Straße', 'HouseNumber': '11', 'PostalCode': '13156'}",Berlin,Niederschönhausen,Hermann-Hesse-Straße,11,13156
113,114288,11,0,1,1,2018,8,20,3,2,6,7,1,1,0,1,0,0,0,0,13.355443022515542,52.51490737557456,"{'City': 'Berlin', 'District': 'Tiergarten', 'Street': 'Straße des 17. Juni', 'HouseNumber': '', 'PostalCode': '10785'}",Berlin,Tiergarten,Straße des 17. Juni,,10785
114,114289,11,0,2,2,2018,4,8,3,3,3,6,0,1,1,0,0,0,0,0,13.438295460484351,52.51731417678026,"{'City': 'Berlin', 'District': 'Friedrichshain', 'Street': 'Karl-Marx-Allee', 'HouseNumber': '80', 'PostalCode': '10243'}",Berlin,Friedrichshain,Karl-Marx-Allee,80,10243
115,114290,11,0,12,12,2018,4,6,5,3,5,3,0,1,1,0,0,0,0,0,13.315377236622169,52.6131401288514,"{'City': 'Berlin', 'District': 'Hermsdorf', 'Street': 'Berliner Straße', 'HouseNumber': '6B', 'PostalCode': '13467'}",Berlin,Hermsdorf,Berliner Straße,6B,13467
116,114293,11,0,3,3,2018,12,7,4,3,5,2,0,1,1,0,0,0,0,0,13.438884873604849,52.54139522281786,"{'City': 'Berlin', 'District': 'Prenzlauer Berg', 'Street': 'Greifswalder Straße', 'HouseNumber': '166', 'PostalCode': '10409'}",Berlin,Prenzlauer Berg,Greifswalder Straße,166,10409
117,114294,11,0,1,1,2018,9,9,5,2,6,4,0,1,0,1,0,0,0,0,13.411963867738276,52.51923200206266,"{'City': 'Berlin', 'District': 'Mitte', 'Street': 'Grunerstraße', 'HouseNumber': '', 'PostalCode': '10179'}",Berlin,Mitte,Grunerstraße,,10179
118,114296,11,0,3,3,2018,6,15,6,3,0,3,0,1,1,0,0,0,0,0,13.414352956362663,52.54065066611576,"{'City': 'Berlin', 'District': 'Prenzlauer Berg', 'Street': 'Danziger Straße', 'HouseNumber': '', 'PostalCode': '10435'}",Berlin,Prenzlauer Berg,Danziger Straße,,10435
119,114300,11,0,3,3,2018,11,13,3,3,2,6,0,1,1,0,0,0,0,0,13.433977388417462,52.53590515578498,"{'City': 'Berlin', 'District': 'Prenzlauer Berg', 'Street': 'Danziger Straße', 'HouseNumber': '123', 'PostalCode': '10407'}",Berlin,Prenzlauer Berg,Danziger Straße,123,10407
120,114307,11,0,3,3,2018,5,21,5,3,5,3,0,1,1,0,0,0,0,0,13.414790916419575,52.55504275099255,"{'City': 'Berlin', 'District': 'Prenzlauer Berg', 'Street': 'Berliner Straße', 'HouseNumber': '74', 'PostalCode': '13189'}",Berlin,Prenzlauer Berg,Berliner Straße,74,13189
121,114308,11,0,1,1,2018,10,16,5,3,0,6,1,1,1,0,0,0,0,0,13.406551664097403,52.52078986233174,"{'City': 'Berlin', 'District': 'Mitte', 'Street': 'Karl-Liebknecht-Straße', 'HouseNumber': '8', 'PostalCode': '10178'}",Berlin,Mitte,Karl-Liebknecht-Straße,8,10178
122,114315,11,0,9,9,2018,6,13,3,3,3,2,0,1,0,0,0,0,1,0,13.512025714579247,52.45489278920251,"{'City': 'Berlin', 'District': 'Niederschöneweide', 'Street': 'Sterndamm', 'HouseNumber': '', 'PostalCode': '12439'}",Berlin,Niederschöneweide,Sterndamm,,12439
123,114316,11,0,10,10,2018,5,14,6,3,5,3,0,1,1,0,0,0,0,0,13.55811131818682,52.562666978883186,"{'City': 'Berlin', 'District': 'Marzahn', 'Street': 'Märkische Allee', 'HouseNumber': '', 'PostalCode': '12689'}",Berlin,Marzahn,Märkische Allee,,12689
124,114317,11,0,3,3,2018,4,9,5,2,3,6,0,1,0,0,0,0,0,0,13.44263928114161,52.54458982898041,"{'City': 'Berlin', 'District': 'Prenzlauer Berg', 'Street': 'Greifswalder Straße', 'HouseNumber': '', 'PostalCode': '10409'}",Berlin,Prenzlauer Berg,Greifswalder Straße,,10409
125,114319,11,0,12,12,2018,9,18,7,3,5,2,0,1,1,0,0,0,0,0,13.316636178845677,52.614204975827015,"{'City': 'Berlin', 'District': 'Hermsdorf', 'Street': 'Berliner Straße', 'HouseNumber': '12', 'PostalCode': '13467'}",Berlin,Hermsdorf,Berliner Straße,12,13467
126,114322,11,0,1,1,2018,7,18,2,3,3,6,0,1,1,0,0,0,1,0,13.412815254769495,52.51963623810599,"{'City': 'Berlin', 'District': 'Mitte', 'Street': 'Grunerstraße', 'HouseNumber': '13', 'PostalCode': '10179'}",Berlin,Mitte,Grunerstraße,13,10179
127,114325,11,0,10,10,2018,10,12,6,2,5,2,0,1,1,0,0,0,0,0,13.550334053001476,52.50929746906614,"{'City': 'Berlin', 'District': 'Biesdorf', 'Street': 'Alt-Biesdorf', 'HouseNumber': '12', 'PostalCode': '12683'}",Berlin,Biesdorf,Alt-Biesdorf,12,12683
128,114330,11,0,1,1,2018,6,9,4,2,0,7,0,1,0,0,0,0,0,0,13.419489432305191,52.52508163583885,"{'City': 'Berlin', 'District': 'Mitte', 'Street': 'Otto-Braun-Straße', 'HouseNumber': '', 'PostalCode': '10178'}",Berlin,Mitte,Otto-Braun-Straße,,10178
129,114335,11,0,3,3,2018,9,13,2,2,5,2,0,1,0,0,1,0,0,0,13.446292149241108,52.52749130490148,"{'City': 'Berlin', 'District': 'Prenzlauer Berg', 'Street': 'Danziger Straße', 'HouseNumber': '228', 'PostalCode': '10407'}",Berlin,Prenzlauer Berg,Danziger Straße,228,10407
130,114337,11,0,6,6,2018,6,10,3,3,1,5,0,1,1,0,0,0,0,0,13.098118690816094,52.41351486947672,"{'City': 'Berlin', 'District': 'Wannsee', 'Street': 'Königstraße', 'HouseNumber': '', 'PostalCode': '14109'}",Berlin,Wannsee,Königstraße,,14109
131,114338,11,0,2,2,2018,7,9,2,3,1,5,0,1,0,0,0,0,1,0,13.426738106089028,52.51908027874814,"{'City': 'Berlin', 'District': 'Friedrichshain', 'Street': 'Karl-Marx-Allee', 'HouseNumber': '1', 'PostalCode': '10243'}",Berlin,Friedrichshain,Karl-Marx-Allee,1,10243
132,114339,11,0,3,3,2018,6,19,4,3,5,3,0,1,0,0,1,0,0,0,13.423998779933138,52.528243083867046,"{'City': 'Berlin', 'District': 'Prenzlauer Berg', 'Street': '', 'HouseNumber': '', 'PostalCode': '10405'}",Berlin,Prenzlauer Berg,,,10405
133,114343,11,0,4,4,2018,10,10,2,3,6,4,0,1,0,1,0,0,0,0,13.290227392299856,52.51045446131641,"{'City': 'Berlin', 'District': 'Charlottenburg', 'Street': 'Kaiserdamm', 'HouseNumber': '108', 'PostalCode': '14057'}",Berlin,Charlottenburg,Kaiserdamm,108,14057
134,114344,11,0,4,4,2018,7,19,7,3,5,2,1,1,1,0,0,0,0,0,13.30138012619489,52.51115230204537,"{'City': 'Berlin', 'District': 'Charlottenburg', 'Street': 'Bismarckstraße', 'HouseNumber': '', 'PostalCode': '10627'}",Berlin,Charlottenburg,Bismarckstraße,,10627
135,114345,11,0,9,9,2018,4,8,2,3,5,2,0,1,0,0,0,0,1,1,13.51444826363464,52.45324863943764,"{'City': 'Berlin', 'District': 'Niederschöneweide', 'Street': 'Michael-Brückner-Straße', 'HouseNumber': '', 'PostalCode': '12439'}",Berlin,Niederschöneweide,Michael-Brückner-Straße,,12439
136,114351,11,0,1,1,2018,11,16,1,3,3,6,2,1,1,0,0,0,0,1,13.410598011317008,52.523137963637375,"{'City': 'Berlin', 'District': 'Mitte', 'Street': 'Karl-Liebknecht-Straße', 'HouseNumber': '19', 'PostalCode': '10178'}",Berlin,Mitte,Karl-Liebknecht-Straße,19,10178
137,114353,11,0,3,3,2018,8,16,2,3,2,6,0,1,1,0,0,0,0,0,13.424040982162552,52.528279093454636,"{'City': 'Berlin', 'District': 'Prenzlauer Berg', 'Street': 'Greifswalder Straße', 'HouseNumber': '', 'PostalCode': '10405'}",Berlin,Prenzlauer Berg,Greifswalder Straße,,10405
138,114357,11,0,1,1,2018,8,15,7,3,0,1,0,1,0,0,0,0,0,0,13.35572227515697,52.514817181694994,"{'City': 'Berlin', 'District': 'Tiergarten', 'Street': 'Straße des 17. Juni', 'HouseNumber': '', 'PostalCode': '10785'}",Berlin,Tiergarten,Straße des 17. Juni,,10785
139,114358,11,0,1,1,2018,5,19,3,2,5,3,0,1,0,0,0,0,1,0,13.416890856832858,52.52219726540724,"{'City': 'Berlin', 'District': 'Mitte', 'Street': 'Otto-Braun-Straße', 'HouseNumber': '', 'PostalCode': '10178'}",Berlin,Mitte,Otto-Braun-Straße,,10178
140,114363,11,0,1,1,2018,6,16,4,3,2,6,0,1,1,0,0,0,0,0,13.418166613462422,52.5233642589189,"{'City': 'Berlin', 'District': 'Mitte', 'Street': 'Otto-Braun-Straße', 'HouseNumber': '', 'PostalCode': '10178'}",Berlin,Mitte,Otto-Braun-Straße,,10178
141,114365,11,0,2,2,2018,7,16,3,3,5,3,0,1,1,0,0,0,0,0,13.389139295267166,52.498036313792966,"{'City': 'Berlin', 'District': 'Kreuzberg', 'Street': 'Mehringbrücke', 'HouseNumber': '', 'PostalCode': '10963'}",Berlin,Kreuzberg,Mehringbrücke,,10963
142,114370,11,0,2,2,2018,3,12,2,3,5,3,0,1,1,0,0,0,0,0,13.421123390894621,52.52642718417064,"{'City': 'Berlin', 'District': 'Prenzlauer Berg', 'Street': 'Mendelssohnstraße', 'HouseNumber': '', 'PostalCode': '10405'}",Berlin,Prenzlauer Berg,Mendelssohnstraße,,10405
143,114373,11,0,9,9,2018,8,13,3,2,5,2,0,1,0,0,0,0,1,0,13.465224472355148,52.486589045833256,"{'City': 'Berlin', 'District': 'Plänterwald', 'Street': '', 'HouseNumber': '', 'PostalCode': '12435'}",Berlin,Plänterwald,,,12435
144,114374,11,0,3,3,2018,4,15,2,3,0,1,0,1,0,0,0,0,0,0,13.413299117817592,52.54803466294814,"{'City': 'Berlin', 'District': 'Prenzlauer Berg', 'Street': 'Schönhauser Allee', 'HouseNumber': '122', 'PostalCode': '10437'}",Berlin,Prenzlauer Berg,Schönhauser Allee,122,10437
145,114376,11,0,3,3,2018,5,16,3,3,5,2,0,1,1,0,0,0,0,0,13.424006426390042,52.5391012793353,"{'City': 'Berlin', 'District': 'Prenzlauer Berg', 'Street': 'Prenzlauer Allee', 'HouseNumber': '', 'PostalCode': '10405'}",Berlin,Prenzlauer Berg,Prenzlauer Allee,,10405
146,114378,11,0,1,1,2018,12,10,2,3,2,2,0,1,1,0,0,0,0,1,13.368364420358546,52.506337998155956,"{'City': 'Berlin', 'District': 'Tiergarten', 'Street': 'Reichpietschufer', 'HouseNumber': '', 'PostalCode': '10785'}",Berlin,Tiergarten,Reichpietschufer,,10785
147,114379,11,0,3,3,2018,9,17,5,3,5,2,0,1,0,0,0,0,1,0,13.413725281078774,52.550571973232074,"{'City': 'Berlin', 'District': 'Prenzlauer Berg', 'Street': 'Schönhauser Allee', 'HouseNumber': '', 'PostalCode': '10439'}",Berlin,Prenzlauer Berg,Schönhauser Allee,,10439
148,114381,11,0,9,9,2018,6,6,6,3,3,6,0,1,0,0,0,0,1,0,13.510030151971451,52.456432803239686,"{'City': 'Berlin', 'District': 'Niederschöneweide', 'Street': 'Michael-Brückner-Straße', 'HouseNumber': '', 'PostalCode': '12439'}",Berlin,Niederschöneweide,Michael-Brückner-Straße,,12439
149,114383,11,0,2,2,2018,5,8,4,2,5,3,0,1,1,0,0,0,0,0,13.467573269505788,52.51450732202314,"{'City': 'Berlin', 'District': 'Friedrichshain', 'Street': '', 'HouseNumber': '', 'PostalCode': '10247'}",Berlin,Friedrichshain,,,10247
150,114390,11,0,10,10,2018,8,16,4,3,5,3,0,1,1,0,0,0,0,0,13.606291268603798,52.504953337808836,"{'City': 'Berlin', 'District': 'Mahlsdorf', 'Street': 'Alt-Mahlsdorf', 'HouseNumber': '', 'PostalCode': '12623'}",Berlin,Mahlsdorf,Alt-Mahlsdorf,,12623
151,114391,11,0,2,2,2018,4,22,4,3,6,4,2,1,0,1,0,0,0,0,13.452107233122865,52.511939912658846,"{'City': 'Berlin', 'District': 'Friedrichshain', 'Street': 'Warschauer Straße', 'HouseNumber': '18', 'PostalCode': '10243'}",Berlin,Friedrichshain,Warschauer Straße,18,10243
152,114393,11,0,1,1,2018,5,20,4,3,5,3,0,1,1,0,0,0,0,0,13.42254421818457,52.52003030560933,"{'City': 'Berlin', 'District': 'Mitte', 'Street': 'Karl-Marx-Allee', 'HouseNumber': '', 'PostalCode': '10178'}",Berlin,Mitte,Karl-Marx-Allee,,10178
153,114394,11,0,2,2,2018,10,9,4,3,2,2,0,1,1,0,0,0,0,0,13.389266237344074,52.49748077015935,"{'City': 'Berlin', 'District': 'Kreuzberg', 'Street': 'Mehringdamm', 'HouseNumber': '', 'PostalCode': '10961'}",Berlin,Kreuzberg,Mehringdamm,,10961
154,114395,11,0,3,3,2018,2,12,7,2,5,2,0,1,1,0,0,0,0,0,13.409056237567357,52.56328979747958,"{'City': 'Berlin', 'District': 'Pankow', 'Street': 'Mühlenstraße', 'HouseNumber': '62', 'PostalCode': '13187'}",Berlin,Pankow,Mühlenstraße,62,13187
155,114397,11,0,4,4,2018,9,17,7,3,1,5,0,1,1,0,0,0,0,0,13.242398531529217,52.50753603203281,"{'City': 'Berlin', 'District': 'Westend', 'Street': 'Heerstraße', 'HouseNumber': '', 'PostalCode': '14055'}",Berlin,Westend,Heerstraße,,14055
156,114400,11,0,4,4,2018,7,13,1,3,2,6,0,1,1,0,0,0,0,0,13.320329176600175,52.512398777724066,"{'City': 'Berlin', 'District': 'Charlottenburg', 'Street': 'Bismarckstraße', 'HouseNumber': '', 'PostalCode': '10625'}",Berlin,Charlottenburg,Bismarckstraße,,10625
157,114401,11,0,3,3,2018,6,20,3,3,6,4,0,1,0,1,0,0,0,0,13.425774203270395,52.542063973710356,"{'City': 'Berlin', 'District': 'Prenzlauer Berg', 'Street': 'Prenzlauer Allee', 'HouseNumber': '185', 'PostalCode': '10405'}",Berlin,Prenzlauer Berg,Prenzlauer Allee,185,10405
158,114403,11,0,7,7,2018,5,15,5,3,3,6,0,1,0,0,0,0,1,0,13.357042409338794,52.4867349470559,"{'City': 'Berlin', 'District': 'Schöneberg', 'Street': 'Hauptstraße', 'HouseNumber': '', 'PostalCode': '10827'}",Berlin,Schöneberg,Hauptstraße,,10827
159,114406,11,0,1,1,2018,9,11,7,3,5,7,0,1,1,0,0,0,0,0,13.367140221072415,52.50464074527599,"{'City': 'Berlin', 'District': 'Tiergarten', 'Street': 'Bissingzeile', 'HouseNumber': '', 'PostalCode': '10785'}",Berlin,Tiergarten,Bissingzeile,,10785
160,114408,11,0,3,3,2018,7,18,6,3,0,1,0,1,1,0,0,0,0,0,13.412466435407293,52.542857909701375,"{'City': 'Berlin', 'District': 'Prenzlauer Berg', 'Street': 'Schönhauser Allee', 'HouseNumber': '52', 'PostalCode': '10437'}",Berlin,Prenzlauer Berg,Schönhauser Allee,52,10437
161,114409,11,0,1,1,2018,3,21,3,3,3,6,2,1,1,0,0,0,0,1,13.387662980566276,52.510222043919605,"{'City': 'Berlin', 'District': 'Mitte', 'Street': 'Leipziger Straße', 'HouseNumber': '112', 'PostalCode': '10117'}",Berlin,Mitte,Leipziger Straße,112,10117
162,114410,11,0,2,2,2018,7,22,6,3,1,5,2,1,1,0,0,0,0,0,13.449906109821708,52.51629389264423,"{'City': 'Berlin', 'District': 'Friedrichshain', 'Street': 'Karl-Marx-Allee', 'HouseNumber': '', 'PostalCode': '10243'}",Berlin,Friedrichshain,Karl-Marx-Allee,,10243
163,114413,11,0,3,3,2018,10,17,5,3,1,5,0,1,0,0,0,0,1,0,13.430917340318468,52.5341606716793,"{'City': 'Berlin', 'District': 'Prenzlauer Berg', 'Street': 'Greifswalder Straße', 'HouseNumber': '40', 'PostalCode': '10405'}",Berlin,Prenzlauer Berg,Greifswalder Straße,40,10405
164,114416,11,0,4,4,2018,9,9,2,3,0,2,0,1,1,0,0,0,0,0,13.289155956449799,52.5103866465377,"{'City': 'Berlin', 'District': 'Charlottenburg', 'Street': 'Sophie-Charlotten-Straße', 'HouseNumber': '', 'PostalCode': '14057'}",Berlin,Charlottenburg,Sophie-Charlotten-Straße,,14057
165,114417,11,0,3,3,2018,8,14,7,3,2,6,0,1,1,0,0,0,1,0,13.403836113316995,52.568925236139265,"{'City': 'Berlin', 'District': 'Pankow', 'Street': 'Mühlenstraße', 'HouseNumber': '2', 'PostalCode': '13187'}",Berlin,Pankow,Mühlenstraße,2,13187
166,114425,11,0,2,2,2018,9,7,2,2,5,3,0,1,0,0,1,0,0,0,13.470720150339968,52.5141911127045,"{'City': 'Berlin', 'District': 'Friedrichshain', 'Street': 'Frankfurter Allee', 'HouseNumber': '87', 'PostalCode': '10247'}",Berlin,Friedrichshain,Frankfurter Allee,87,10247
167,114426,11,0,1,1,2018,9,8,3,3,2,6,0,1,1,0,0,0,0,0,13.381907179789845,52.50986197503971,"{'City': 'Berlin', 'District': 'Mitte', 'Street': 'Leipziger Straße', 'HouseNumber': '4', 'PostalCode': '10117'}",Berlin,Mitte,Leipziger Straße,4,10117
168,114429,11,0,3,3,2018,5,19,1,3,2,2,0,1,0,0,0,0,0,0,13.43000094181369,52.537087359550966,"{'City': 'Berlin', 'District': 'Prenzlauer Berg', 'Street': 'Danziger Straße', 'HouseNumber': '104', 'PostalCode': '10405'}",Berlin,Prenzlauer Berg,Danziger Straße,104,10405
169,114437,11,0,4,4,2018,5,15,2,3,0,1,0,1,0,0,0,0,0,0,13.288611352163779,52.51051846106787,"{'City': 'Berlin', 'District': 'Charlottenburg', 'Street': 'Kaiserdamm', 'HouseNumber': '13', 'PostalCode': '14057'}",Berlin,Charlottenburg,Kaiserdamm,13,14057
170,114438,11,0,2,2,2018,10,17,3,3,5,3,1,1,0,0,0,0,0,1,13.453669570359613,52.51438449694702,"{'City': 'Berlin', 'District': 'Friedrichshain', 'Street': 'Warschauer Straße', 'HouseNumber': '82', 'PostalCode': '10243'}",Berlin,Friedrichshain,Warschauer Straße,82,10243
171,114440,11,0,3,3,2018,12,12,7,3,5,2,0,1,1,0,0,0,0,0,13.424327576857628,52.53902319825071,"{'City': 'Berlin', 'District': 'Prenzlauer Berg', 'Street': 'Danziger Straße', 'HouseNumber': '', 'PostalCode': '10405'}",Berlin,Prenzlauer Berg,Danziger Straße,,10405
172,114444,11,0,3,3,2018,6,16,5,3,5,2,0,1,0,0,0,0,1,0,13.412125803623052,52.5431678563183,"{'City': 'Berlin', 'District': 'Prenzlauer Berg', 'Street': 'Cantianstraße', 'HouseNumber': '', 'PostalCode': '10437'}",Berlin,Prenzlauer Berg,Cantianstraße,,10437
173,114446,11,0,1,1,2018,3,12,2,3,5,3,0,1,1,0,0,0,0,1,13.412411940461963,52.51945245905691,"{'City': 'Berlin', 'District': 'Mitte', 'Street': 'Grunerstraße', 'HouseNumber': '11', 'PostalCode': '10179'}",Berlin,Mitte,Grunerstraße,11,10179
174,114448,11,0,2,2,2018,4,15,1,3,0,7,0,1,0,0,0,0,0,0,13.386024926866272,52.488618556804965,"{'City': 'Berlin', 'District': 'Kreuzberg', 'Street': 'Mehringdamm', 'HouseNumber': '88', 'PostalCode': '10965'}",Berlin,Kreuzberg,Mehringdamm,88,10965
175,114454,11,0,3,3,2018,7,7,2,3,5,2,0,1,1,0,0,0,0,0,13.423451965685837,52.52811760604819,"{'City': 'Berlin', 'District': 'Prenzlauer Berg', 'Street': 'Otto-Braun-Straße', 'HouseNumber': '', 'PostalCode': '10405'}",Berlin,Prenzlauer Berg,Otto-Braun-Straße,,10405
176,114455,11,0,2,2,2018,5,8,2,2,3,6,0,1,0,0,0,0,0,0,13.471034846833545,52.514158874886284,"{'City': 'Berlin', 'District': 'Friedrichshain', 'Street': 'Frankfurter Allee', 'HouseNumber': '90', 'PostalCode': '10247'}",Berlin,Friedrichshain,Frankfurter Allee,90,10247
177,114467,11,0,3,3,2018,9,17,4,3,0,2,0,1,1,0,0,0,0,0,13.428477927791576,52.54710594563835,"{'City': 'Berlin', 'District': 'Prenzlauer Berg', 'Street': 'Prenzlauer Allee', 'HouseNumber': '171', 'PostalCode': '10409'}",Berlin,Prenzlauer Berg,Prenzlauer Allee,171,10409
178,114476,11,0,2,2,2018,10,20,5,3,6,4,2,1,0,1,0,0,0,0,13.448596875110692,52.505024418062526,"{'City': 'Berlin', 'District': 'Friedrichshain', 'Street': 'Warschauer Straße', 'HouseNumber': '34', 'PostalCode': '10243'}",Berlin,Friedrichshain,Warschauer Straße,34,10243
179,114478,11,0,3,3,2018,7,16,2,3,6,4,0,1,0,1,0,0,0,0,13.413872855810503,52.54941987359471,"{'City': 'Berlin', 'District': 'Prenzlauer Berg', 'Street': 'Schönhauser Allee', 'HouseNumber': '78', 'PostalCode': '10439'}",Berlin,Prenzlauer Berg,Schönhauser Allee,78,10439
180,114481,11,0,2,2,2018,3,17,5,3,6,7,2,1,0,1,0,0,0,1,13.386427605458506,52.49032596230476,"{'City': 'Berlin', 'District': 'Kreuzberg', 'Street': 'Mehringdamm', 'HouseNumber': '70', 'PostalCode': '10961'}",Berlin,Kreuzberg,Mehringdamm,70,10961
181,114482,11,0,2,2,2018,5,16,4,3,3,6,0,1,1,0,0,0,0,0,13.461036144048714,52.5150207712442,"{'City': 'Berlin', 'District': 'Friedrichshain', 'Street': 'Frankfurter Allee', 'HouseNumber': '32', 'PostalCode': '10247'}",Berlin,Friedrichshain,Frankfurter Allee,32,10247
182,114486,11,0,2,2,2018,9,17,6,3,5,2,0,1,1,0,0,0,0,0,13.454210554163057,52.51586785339176,"{'City': 'Berlin', 'District': 'Friedrichshain', 'Street': 'Frankfurter Tor', 'HouseNumber': '', 'PostalCode': '10243'}",Berlin,Friedrichshain,Frankfurter Tor,,10243
183,114487,11,0,1,1,2018,8,21,5,3,5,2,2,1,1,0,0,0,0,0,13.36847990790678,52.541022853415164,"{'City': 'Berlin', 'District': 'Wedding', 'Street': 'Fennstraße', 'HouseNumber': '', 'PostalCode': '13353'}",Berlin,Wedding,Fennstraße,,13353
184,114488,11,0,2,2,2018,6,10,7,3,5,2,0,1,1,0,0,0,0,0,13.454210554163057,52.51586785339176,"{'City': 'Berlin', 'District': 'Friedrichshain', 'Street': 'Frankfurter Tor', 'HouseNumber': '', 'PostalCode': '10243'}",Berlin,Friedrichshain,Frankfurter Tor,,10243
185,114492,11,0,7,7,2018,5,9,5,2,6,6,0,1,0,1,0,0,0,0,13.393121532473144,52.42843548811849,"{'City': 'Berlin', 'District': 'Mariendorf', 'Street': 'Mariendorfer Damm', 'HouseNumber': '270', 'PostalCode': '12107'}",Berlin,Mariendorf,Mariendorfer Damm,270,12107
186,114493,11,0,11,11,2018,4,17,4,3,3,6,0,1,1,0,0,0,0,0,13.495100345513844,52.51157740518847,"{'City': 'Berlin', 'District': 'Lichtenberg', 'Street': 'Frankfurter Allee', 'HouseNumber': '', 'PostalCode': '10365'}",Berlin,Lichtenberg,Frankfurter Allee,,10365
187,114495,11,0,12,12,2018,9,8,6,3,5,2,0,1,1,0,0,0,0,0,13.361825215739264,52.568425613450174,"{'City': 'Berlin', 'District': 'Reinickendorf', 'Street': 'Residenzstraße', 'HouseNumber': '129', 'PostalCode': '13409'}",Berlin,Reinickendorf,Residenzstraße,129,13409
188,114496,11,0,4,4,2018,9,19,6,3,6,7,1,1,0,1,0,0,0,0,13.278482324810025,52.509877246976146,"{'City': 'Berlin', 'District': 'Westend', 'Street': 'Kaiserdamm', 'HouseNumber': '32', 'PostalCode': '14057'}",Berlin,Westend,Kaiserdamm,32,14057
189,114504,11,0,3,3,2018,9,9,1,3,5,3,0,1,1,0,0,0,0,0,13.436959184778207,52.53973841447821,"{'City': 'Berlin', 'District': 'Prenzlauer Berg', 'Street': 'Greifswalder Straße', 'HouseNumber': '', 'PostalCode': '10405'}",Berlin,Prenzlauer Berg,Greifswalder Straße,,10405
190,114508,11,0,2,2,2018,8,3,5,3,6,6,2,1,0,1,0,0,0,0,13.448329308629628,52.50462522390841,"{'City': 'Berlin', 'District': 'Friedrichshain', 'Street': 'Warschauer Straße', 'HouseNumber': '', 'PostalCode': '10243'}",Berlin,Friedrichshain,Warschauer Straße,,10243
191,114516,11,0,1,1,2018,7,16,6,3,5,2,0,1,1,0,0,0,0,0,13.416384430669838,52.52200439890182,"{'City': 'Berlin', 'District': 'Mitte', 'Street': 'Tunnel Alexanderplatz', 'HouseNumber': '', 'PostalCode': '10178'}",Berlin,Mitte,Tunnel Alexanderplatz,,10178
192,114517,11,0,1,1,2018,5,13,7,3,1,5,0,1,1,0,0,0,1,0,13.381699078202974,52.50984852588309,"{'City': 'Berlin', 'District': 'Mitte', 'Street': 'Leipziger Straße', 'HouseNumber': '129', 'PostalCode': '10117'}",Berlin,Mitte,Leipziger Straße,129,10117
193,114525,11,0,9,9,2018,5,3,1,2,5,3,2,1,1,0,0,0,0,0,13.457697494901684,52.49169300389328,"{'City': 'Berlin', 'District': 'Alt-Treptow', 'Street': 'Elsenstraße', 'HouseNumber': '', 'PostalCode': '12435'}",Berlin,Alt-Treptow,Elsenstraße,,12435
194,114533,11,0,1,1,2018,6,0,4,3,5,3,2,1,1,0,0,0,0,0,13.422514090839215,52.520039625449506,"{'City': 'Berlin', 'District': 'Mitte', 'Street': 'Karl-Marx-Allee', 'HouseNumber': '', 'PostalCode': '10178'}",Berlin,Mitte,Karl-Marx-Allee,,10178
195,114536,11,0,3,3,2018,12,18,7,3,5,2,2,1,0,0,0,0,1,1,13.411966548095354,52.54104049231068,"{'City': 'Berlin', 'District': 'Prenzlauer Berg', 'Street': 'Eberswalder Straße', 'HouseNumber': '', 'PostalCode': '10435'}",Berlin,Prenzlauer Berg,Eberswalder Straße,,10435
196,114539,11,0,4,4,2018,7,8,2,3,3,6,0,1,1,0,0,0,0,0,13.332817561748415,52.513239682913714,"{'City': 'Berlin', 'District': 'Charlottenburg', 'Street': 'Straße des 17. Juni', 'HouseNumber': '', 'PostalCode': '10623'}",Berlin,Charlottenburg,Straße des 17. Juni,,10623
197,114541,11,0,1,1,2018,7,14,5,2,6,4,0,1,0,1,0,0,0,0,13.36919943744634,52.54844874941928,"{'City': 'Berlin', 'District': 'Wedding', 'Street': 'Schererstraße', 'HouseNumber': '', 'PostalCode': '13347'}",Berlin,Wedding,Schererstraße,,13347
198,114546,11,0,1,1,2018,11,19,4,3,6,4,2,1,0,1,0,0,0,1,13.4087974555905,52.516430451341364,"{'City': 'Berlin', 'District': 'Mitte', 'Street': 'Mühlendamm', 'HouseNumber': '', 'PostalCode': '10178'}",Berlin,Mitte,Mühlendamm,,10178
199,114547,11,0,3,3,2018,9,19,5,3,3,6,2,1,0,0,0,0,0,1,13.41314121076585,52.54609890929498,"{'City': 'Berlin', 'District': 'Prenzlauer Berg', 'Street': 'Schönhauser Allee', 'HouseNumber': '64', 'PostalCode': '10437'}",Berlin,Prenzlauer Berg,Schönhauser Allee,64,10437
200,114548,11,0,3,3,2018,8,16,3,3,5,3,0,1,0,0,0,0,0,0,13.414638333795562,52.540772409097784,"{'City': 'Berlin', 'District': 'Prenzlauer Berg', 'Street': 'Danziger Straße', 'HouseNumber': '', 'PostalCode': '10435'}",Berlin,Prenzlauer Berg,Danziger Straße,,10435
201,114552,11,0,7,7,2018,5,12,4,3,6,4,0,1,0,1,0,0,0,0,13.399584268326327,52.41764279427006,"{'City': 'Berlin', 'District': 'Mariendorf', 'Street': 'Mariendorfer Damm', 'HouseNumber': '421', 'PostalCode': '12107'}",Berlin,Mariendorf,Mariendorfer Damm,421,12107
202,114556,11,0,7,7,2018,11,9,7,3,1,5,0,1,0,0,0,0,1,0,13.359743064101332,52.489700530091746,"{'City': 'Berlin', 'District': 'Schöneberg', 'Street': 'Hauptstraße', 'HouseNumber': '158', 'PostalCode': '10827'}",Berlin,Schöneberg,Hauptstraße,158,10827
203,114562,11,0,3,3,2018,7,20,2,3,3,6,0,1,0,0,0,0,0,0,13.4294419770847,52.533277560199,"{'City': 'Berlin', 'District': 'Prenzlauer Berg', 'Street': 'Greifswalder Straße', 'HouseNumber': '204', 'PostalCode': '10405'}",Berlin,Prenzlauer Berg,Greifswalder Straße,204,10405
204,114569,11,0,2,2,2018,11,18,6,2,3,6,2,1,0,0,0,0,0,0,13.447440842271172,52.50344573586247,"{'City': 'Berlin', 'District': 'Friedrichshain', 'Street': 'Warschauer Straße', 'HouseNumber': '47', 'PostalCode': '10243'}",Berlin,Friedrichshain,Warschauer Straße,47,10243
205,114570,11,0,12,12,2018,9,15,6,3,0,3,0,1,0,0,0,0,0,0,13.341506620427102,52.58602935658666,"{'City': 'Berlin', 'District': 'Wittenau', 'Street': 'Roedernallee', 'HouseNumber': '49', 'PostalCode': '13407'}",Berlin,Wittenau,Roedernallee,49,13407
206,114571,11,0,11,11,2018,8,11,4,2,5,2,0,1,1,0,0,0,0,0,13.50498593788275,52.510612959666595,"{'City': 'Berlin', 'District': 'Friedrichsfelde', 'Street': 'Alt-Friedrichsfelde', 'HouseNumber': '', 'PostalCode': '10315'}",Berlin,Friedrichsfelde,Alt-Friedrichsfelde,,10315
207,114572,11,0,1,1,2018,6,4,7,3,3,6,0,1,0,0,0,0,0,0,13.40851401697017,52.51660645778087,"{'City': 'Berlin', 'District': 'Mitte', 'Street': 'Mühlendamm', 'HouseNumber': '5', 'PostalCode': '10178'}",Berlin,Mitte,Mühlendamm,5,10178
208,114573,11,0,2,2,2018,6,17,1,3,0,7,0,1,0,0,0,0,1,0,13.453786448245754,52.517062148934016,"{'City': 'Berlin', 'District': 'Friedrichshain', 'Street': 'Petersburger Straße', 'HouseNumber': '95', 'PostalCode': '10247'}",Berlin,Friedrichshain,Petersburger Straße,95,10247
209,114574,11,0,7,7,2018,8,6,3,3,5,2,0,1,1,0,0,0,0,0,13.361936412340736,52.41362772430516,"{'City': 'Berlin', 'District': 'Marienfelde', 'Street': 'Friedenfelser Straße', 'HouseNumber': '', 'PostalCode': '12279'}",Berlin,Marienfelde,Friedenfelser Straße,,12279
210,114581,11,0,1,1,2018,7,14,4,3,5,3,0,1,1,0,0,0,0,0,13.408935465914203,52.5169927081438,"{'City': 'Berlin', 'District': 'Mitte', 'Street': 'Mühlendamm', 'HouseNumber': '', 'PostalCode': '10178'}",Berlin,Mitte,Mühlendamm,,10178
211,114582,11,0,2,2,2018,5,18,5,3,5,2,0,1,1,0,0,0,0,0,13.453739635648517,52.51594043732237,"{'City': 'Berlin', 'District': 'Friedrichshain', 'Street': 'Frankfurter Tor', 'HouseNumber': '', 'PostalCode': '10243'}",Berlin,Friedrichshain,Frankfurter Tor,,10243
212,114584,11,0,9,9,2018,11,18,3,3,6,7,2,1,0,1,0,0,0,1,13.463682091536876,52.48761597956512,"{'City': 'Berlin', 'District': 'Plänterwald', 'Street': 'Am Treptower Park', 'HouseNumber': '28A', 'PostalCode': '12435'}",Berlin,Plänterwald,Am Treptower Park,28A,12435
213,114588,11,0,1,1,2018,8,23,4,3,3,6,2,1,1,0,0,0,0,0,13.399757555097601,52.51774532010345,"{'City': 'Berlin', 'District': 'Mitte', 'Street': '', 'HouseNumber': '', 'PostalCode': '10178'}",Berlin,Mitte,,,10178
214,114592,11,0,6,6,2018,12,12,5,3,6,6,0,1,0,1,0,0,0,0,13.271569910697997,52.43829934311826,"{'City': 'Berlin', 'District': 'Zehlendorf', 'Street': 'Sundgauer Straße', 'HouseNumber': '', 'PostalCode': '14169'}",Berlin,Zehlendorf,Sundgauer Straße,,14169
215,114594,11,0,3,3,2018,9,12,2,3,5,3,0,1,1,0,0,0,0,0,13.476431474015214,52.56811940585465,"{'City': 'Berlin', 'District': 'Stadtrandsiedlung Malchow', 'Street': 'Malchower Chaussee', 'HouseNumber': '', 'PostalCode': '13088'}",Berlin,Stadtrandsiedlung Malchow,Malchower Chaussee,,13088
216,114595,11,0,3,3,2018,6,16,7,2,3,6,0,1,1,0,0,0,0,0,13.41355019968638,52.558629067787386,"{'City': 'Berlin', 'District': 'Pankow', 'Street': 'B96A', 'HouseNumber': '', 'PostalCode': '13189'}",Berlin,Pankow,B96A,,13189
217,114596,11,0,11,11,2018,7,10,5,3,5,2,0,1,0,0,0,0,1,0,13.504480983192705,52.51065255715756,"{'City': 'Berlin', 'District': 'Rummelsburg', 'Street': 'Frankfurter Allee', 'HouseNumber': '', 'PostalCode': '10317'}",Berlin,Rummelsburg,Frankfurter Allee,,10317
218,114602,11,0,3,3,2018,8,3,1,3,0,3,2,1,1,0,0,0,0,0,13.424319230405981,52.53902604889746,"{'City': 'Berlin', 'District': 'Prenzlauer Berg', 'Street': 'Danziger Straße', 'HouseNumber': '', 'PostalCode': '10405'}",Berlin,Prenzlauer Berg,Danziger Straße,,10405
219,114606,11,0,2,2,2018,10,18,2,3,2,6,1,1,1,0,0,0,0,1,13.47378972947933,52.51387236174066,"{'City': 'Berlin', 'District': 'Friedrichshain', 'Street': 'Frankfurter Allee', 'HouseNumber': '101', 'PostalCode': '10247'}",Berlin,Friedrichshain,Frankfurter Allee,101,10247
220,114609,11,0,2,2,2018,9,15,3,3,0,1,0,1,0,0,0,0,0,0,13.453332534654328,52.51362100062693,"{'City': 'Berlin', 'District': 'Friedrichshain', 'Street': 'Warschauer Straße', 'HouseNumber': '80', 'PostalCode': '10243'}",Berlin,Friedrichshain,Warschauer Straße,80,10243
221,114610,11,0,2,2,2018,8,20,3,3,1,5,2,1,1,0,0,0,0,0,13.453692827552285,52.51731019593096,"{'City': 'Berlin', 'District': 'Friedrichshain', 'Street': 'Petersburger Straße', 'HouseNumber': '93', 'PostalCode': '10247'}",Berlin,Friedrichshain,Petersburger Straße,93,10247
222,114611,11,0,4,4,2018,6,12,3,2,5,2,0,1,1,0,0,0,0,0,13.305147025733332,52.511399296672955,"{'City': 'Berlin', 'District': 'Charlottenburg', 'Street': 'Wilmersdorfer Straße', 'HouseNumber': '', 'PostalCode': '10627'}",Berlin,Charlottenburg,Wilmersdorfer Straße,,10627
223,114615,11,0,3,3,2018,4,22,6,3,6,4,2,1,0,1,0,0,0,1,13.413028252588152,52.54567470134311,"{'City': 'Berlin', 'District': 'Prenzlauer Berg', 'Street': 'Schönhauser Allee', 'HouseNumber': '62', 'PostalCode': '10437'}",Berlin,Prenzlauer Berg,Schönhauser Allee,62,10437
224,114616,11,0,2,2,2018,12,13,6,3,5,3,0,1,1,0,0,0,0,1,13.467211197458044,52.51439250031999,"{'City': 'Berlin', 'District': 'Friedrichshain', 'Street': 'Frankfurter Allee', 'HouseNumber': '70', 'PostalCode': '10247'}",Berlin,Friedrichshain,Frankfurter Allee,70,10247
225,114618,11,0,3,3,2018,7,11,1,3,1,5,0,1,1,0,0,0,0,0,13.448953019848307,52.547515879017936,"{'City': 'Berlin', 'District': 'Weißensee', 'Street': 'Berliner Allee', 'HouseNumber': '11', 'PostalCode': '13088'}",Berlin,Weißensee,Berliner Allee,11,13088
226,114619,11,0,7,7,2018,4,15,2,3,1,5,0,1,1,0,0,0,0,1,13.355347972763697,52.48557990357998,"{'City': 'Berlin', 'District': 'Schöneberg', 'Street': 'Hauptstraße', 'HouseNumber': '140', 'PostalCode': '10827'}",Berlin,Schöneberg,Hauptstraße,140,10827
227,114620,11,0,3,3,2018,7,16,4,2,1,5,0,1,0,0,0,0,1,0,13.412824073959994,52.544881857167034,"{'City': 'Berlin', 'District': 'Prenzlauer Berg', 'Street': 'Schönhauser Allee', 'HouseNumber': '59', 'PostalCode': '10437'}",Berlin,Prenzlauer Berg,Schönhauser Allee,59,10437
228,114621,11,0,3,3,2018,3,16,2,3,5,3,0,1,1,0,0,0,0,0,13.402518824546876,52.592214623541786,"{'City': 'Berlin', 'District': 'Rosenthal', 'Street': 'Dietzgenstraße', 'HouseNumber': '104', 'PostalCode': '13158'}",Berlin,Rosenthal,Dietzgenstraße,104,13158
229,114635,11,0,6,6,2018,12,7,3,3,0,1,1,1,0,0,0,0,0,1,13.300088267033031,52.447920334882944,"{'City': 'Berlin', 'District': 'Lichterfelde', 'Street': 'Unter den Eichen', 'HouseNumber': '108A', 'PostalCode': '12203'}",Berlin,Lichterfelde,Unter den Eichen,108A,12203
230,114636,11,0,11,11,2018,9,11,3,3,5,2,0,1,0,0,0,0,1,0,13.483391972527011,52.57734513058365,"{'City': 'Berlin', 'District': 'Malchow', 'Street': 'Wartenberger Weg', 'HouseNumber': '', 'PostalCode': '13051'}",Berlin,Malchow,Wartenberger Weg,,13051
231,114639,11,0,3,3,2018,7,10,3,2,0,3,0,1,1,0,0,0,0,0,13.43841280234457,52.54100321146678,"{'City': 'Berlin', 'District': 'Prenzlauer Berg', 'Street': 'Greifswalder Straße', 'HouseNumber': '167', 'PostalCode': '10409'}",Berlin,Prenzlauer Berg,Greifswalder Straße,167,10409
232,114646,11,0,2,2,2018,10,22,6,3,5,3,2,1,1,0,0,0,0,0,13.454213369937094,52.51585613987216,"{'City': 'Berlin', 'District': 'Friedrichshain', 'Street': 'Frankfurter Allee', 'HouseNumber': '', 'PostalCode': '10247'}",Berlin,Friedrichshain,Frankfurter Allee,,10247
233,114647,11,0,3,3,2018,8,16,3,3,3,6,0,1,1,0,0,0,0,0,13.445882794657594,52.52787320386258,"{'City': 'Berlin', 'District': 'Prenzlauer Berg', 'Street': 'Danziger Straße', 'HouseNumber': '224', 'PostalCode': '10407'}",Berlin,Prenzlauer Berg,Danziger Straße,224,10407
234,114648,11,0,2,2,2018,4,12,3,2,5,3,0,1,0,0,0,0,0,0,13.429320275843285,52.51852462456695,"{'City': 'Berlin', 'District': 'Friedrichshain', 'Street': 'Karl-Marx-Allee', 'HouseNumber': '', 'PostalCode': '10243'}",Berlin,Friedrichshain,Karl-Marx-Allee,,10243
235,114650,11,0,11,11,2018,5,8,4,3,5,5,0,1,1,0,0,0,0,0,13.513434360646379,52.51021788130834,"{'City': 'Berlin', 'District': 'Friedrichsfelde', 'Street': 'Alt-Friedrichsfelde', 'HouseNumber': '104', 'PostalCode': '10315'}",Berlin,Friedrichsfelde,Alt-Friedrichsfelde,104,10315
236,114652,11,0,7,7,2018,12,16,3,3,1,5,2,1,1,0,0,0,1,1,13.385623103444154,52.44604878518791,"{'City': 'Berlin', 'District': 'Mariendorf', 'Street': 'Mariendorfer Damm', 'HouseNumber': '76', 'PostalCode': '12109'}",Berlin,Mariendorf,Mariendorfer Damm,76,12109
237,114654,11,0,9,9,2018,8,8,6,3,5,3,0,1,0,0,0,0,1,0,13.50995395521134,52.45648612802197,"{'City': 'Berlin', 'District': 'Niederschöneweide', 'Street': 'Brückenstraße', 'HouseNumber': '', 'PostalCode': '12439'}",Berlin,Niederschöneweide,Brückenstraße,,12439
238,114655,11,0,9,9,2018,6,12,6,3,5,3,0,1,1,0,0,0,0,0,13.49310586616712,52.46781541337091,"{'City': 'Berlin', 'District': 'Baumschulenweg', 'Street': 'Rodelbergweg', 'HouseNumber': '', 'PostalCode': '12437'}",Berlin,Baumschulenweg,Rodelbergweg,,12437
239,114656,11,0,7,7,2018,7,22,4,3,8,1,2,1,0,0,0,0,0,0,13.380623032685339,52.43809018447138,"{'City': 'Berlin', 'District': 'Mariendorf', 'Street': 'Großbeerenstraße', 'HouseNumber': '12', 'PostalCode': '12107'}",Berlin,Mariendorf,Großbeerenstraße,12,12107
240,114657,11,0,12,12,2018,5,18,4,3,5,2,0,1,1,0,0,0,0,0,13.361855016235573,52.568368912701914,"{'City': 'Berlin', 'District': 'Reinickendorf', 'Street': 'Residenzstraße', 'HouseNumber': '29', 'PostalCode': '13409'}",Berlin,Reinickendorf,Residenzstraße,29,13409
241,114660,11,0,1,1,2018,9,20,5,3,0,1,1,1,0,0,0,0,0,0,13.419864441311063,52.52542303321316,"{'City': 'Berlin', 'District': 'Prenzlauer Berg', 'Street': 'Otto-Braun-Straße', 'HouseNumber': '', 'PostalCode': '10405'}",Berlin,Prenzlauer Berg,Otto-Braun-Straße,,10405
242,114666,11,0,1,1,2018,8,23,5,2,5,3,2,1,1,0,0,0,0,0,13.393879828048702,52.51738420954979,"{'City': 'Berlin', 'District': 'Mitte', 'Street': 'Unter den Linden', 'HouseNumber': '6', 'PostalCode': '10117'}",Berlin,Mitte,Unter den Linden,6,10117
243,114668,11,0,4,4,2018,10,13,7,3,5,2,0,1,1,0,0,0,0,0,13.26979468917291,52.50921396534177,"{'City': 'Berlin', 'District': 'Westend', 'Street': 'Heerstraße', 'HouseNumber': '', 'PostalCode': '14052'}",Berlin,Westend,Heerstraße,,14052
244,114669,11,0,1,1,2018,8,11,4,3,5,2,0,1,1,0,0,0,0,0,13.4091163294551,52.51669535386026,"{'City': 'Berlin', 'District': 'Mitte', 'Street': 'Mühlendamm', 'HouseNumber': '', 'PostalCode': '10178'}",Berlin,Mitte,Mühlendamm,,10178
245,114670,11,0,2,2,2018,4,7,5,2,1,5,0,1,1,0,0,0,1,0,13.382625248239169,52.499247270952395,"{'City': 'Berlin', 'District': 'Kreuzberg', 'Street': 'Hallesches Ufer', 'HouseNumber': '', 'PostalCode': '10963'}",Berlin,Kreuzberg,Hallesches Ufer,,10963
246,114677,11,0,2,2,2018,7,20,5,3,5,3,0,1,1,0,0,0,0,0,13.448696689806358,52.50518692891407,"{'City': 'Berlin', 'District': 'Friedrichshain', 'Street': 'Warschauer Straße', 'HouseNumber': '', 'PostalCode': '10243'}",Berlin,Friedrichshain,Warschauer Straße,,10243
247,114680,11,0,10,10,2018,11,20,4,3,5,2,2,1,1,0,0,0,0,0,13.554422588783563,52.5577098261382,"{'City': 'Berlin', 'District': 'Marzahn', 'Street': 'Märkische Allee', 'HouseNumber': '', 'PostalCode': '12687'}",Berlin,Marzahn,Märkische Allee,,12687
248,114684,11,0,3,3,2018,8,13,7,3,3,6,0,1,0,0,0,1,0,0,13.434479328076975,52.53722330095037,"{'City': 'Berlin', 'District': 'Prenzlauer Berg', 'Street': 'Greifswalder Straße', 'HouseNumber': '51', 'PostalCode': '10405'}",Berlin,Prenzlauer Berg,Greifswalder Straße,51,10405
249,114687,11,0,1,1,2018,5,10,6,2,5,2,0,1,0,0,0,1,0,0,13.376659469862117,52.51614334859683,"{'City': 'Berlin', 'District': 'Tiergarten', 'Street': 'Straße des 17. Juni', 'HouseNumber': '', 'PostalCode': '10785'}",Berlin,Tiergarten,Straße des 17. Juni,,10785
250,114689,11,0,7,7,2018,2,16,2,3,5,3,0,1,1,0,0,0,0,0,13.388096115932742,52.43765438434853,"{'City': 'Berlin', 'District': 'Mariendorf', 'Street': 'Mariendorfer Damm', 'HouseNumber': '156', 'PostalCode': '12107'}",Berlin,Mariendorf,Mariendorfer Damm,156,12107
251,114691,11,0,10,10,2018,9,18,2,3,5,2,0,1,1,0,0,0,0,0,13.613553485344541,52.50489337364453,"{'City': 'Berlin', 'District': 'Mahlsdorf', 'Street': 'Alt-Mahlsdorf', 'HouseNumber': '', 'PostalCode': '12623'}",Berlin,Mahlsdorf,Alt-Mahlsdorf,,12623
252,114692,11,0,11,11,2018,8,0,7,3,0,1,2,1,0,0,0,0,0,0,13.484280899847043,52.51281606367448,"{'City': 'Berlin', 'District': 'Lichtenberg', 'Street': 'Ruschestraße', 'HouseNumber': '', 'PostalCode': '10367'}",Berlin,Lichtenberg,Ruschestraße,,10367
253,114693,11,0,2,2,2018,6,9,3,3,3,6,0,1,0,0,0,0,0,0,13.389479247828882,52.496623672887054,"{'City': 'Berlin', 'District': 'Kreuzberg', 'Street': 'Mehringdamm', 'HouseNumber': '13', 'PostalCode': '10961'}",Berlin,Kreuzberg,Mehringdamm,13,10961
254,114702,11,0,12,12,2018,7,18,2,3,5,2,0,1,1,0,0,0,0,0,13.363946126722704,52.56470926799227,"{'City': 'Berlin', 'District': 'Reinickendorf', 'Street': 'Residenzstraße', 'HouseNumber': '114', 'PostalCode': '13409'}",Berlin,Reinickendorf,Residenzstraße,114,13409
255,114704,11,0,3,3,2018,5,14,1,2,5,2,0,1,1,0,0,0,0,0,13.476345340227839,52.56807880596357,"{'City': 'Berlin', 'District': 'Stadtrandsiedlung Malchow', 'Street': 'Malchower Chaussee', 'HouseNumber': '', 'PostalCode': '13088'}",Berlin,Stadtrandsiedlung Malchow,Malchower Chaussee,,13088
256,114709,11,0,3,3,2018,8,8,2,3,3,6,0,1,0,0,0,0,0,0,13.412104744066792,52.542914219523965,"{'City': 'Berlin', 'District': 'Prenzlauer Berg', 'Street': 'Schönhauser Allee', 'HouseNumber': '', 'PostalCode': '10437'}",Berlin,Prenzlauer Berg,Schönhauser Allee,,10437
257,114714,11,0,3,3,2018,8,15,6,3,6,4,0,1,0,1,0,0,0,0,13.428737687530276,52.53228434296548,"{'City': 'Berlin', 'District': 'Prenzlauer Berg', 'Street': 'Greifswalder Straße', 'HouseNumber': '29', 'PostalCode': '10405'}",Berlin,Prenzlauer Berg,Greifswalder Straße,29,10405
258,114717,11,0,6,6,2018,12,11,2,3,5,2,0,1,1,0,0,0,0,0,13.262169036022364,52.434815201357225,"{'City': 'Berlin', 'District': 'Zehlendorf', 'Street': 'Gartenstraße', 'HouseNumber': '', 'PostalCode': '14169'}",Berlin,Zehlendorf,Gartenstraße,,14169
259,114720,11,0,2,2,2018,6,15,4,3,0,6,0,1,0,0,0,0,0,0,13.389265348390273,52.497484345332936,"{'City': 'Berlin', 'District': 'Kreuzberg', 'Street': 'Mehringdamm', 'HouseNumber': '', 'PostalCode': '10961'}",Berlin,Kreuzberg,Mehringdamm,,10961
260,114722,11,0,12,12,2018,5,14,2,3,5,2,0,1,1,0,0,0,0,0,13.36011731867835,52.571706908275154,"{'City': 'Berlin', 'District': 'Reinickendorf', 'Street': 'Residenzstraße', 'HouseNumber': '12', 'PostalCode': '13409'}",Berlin,Reinickendorf,Residenzstraße,12,13409
261,114725,11,0,12,12,2018,8,13,5,2,5,2,0,1,1,0,0,0,0,0,13.364783083960553,52.56055302959908,"{'City': 'Berlin', 'District': 'Reinickendorf', 'Street': '', 'HouseNumber': '', 'PostalCode': '13409'}",Berlin,Reinickendorf,,,13409
262,114729,11,0,3,3,2018,8,8,3,2,5,3,0,1,0,0,1,0,0,0,13.429178493943725,52.53305234783579,"{'City': 'Berlin', 'District': 'Prenzlauer Berg', 'Street': '', 'HouseNumber': '', 'PostalCode': '10405'}",Berlin,Prenzlauer Berg,,,10405
263,114736,11,0,11,11,2018,8,5,5,3,0,7,1,1,0,0,0,0,0,0,13.48205462935295,52.513040694239756,"{'City': 'Berlin', 'District': 'Lichtenberg', 'Street': 'Frankfurter Allee', 'HouseNumber': '151', 'PostalCode': '10365'}",Berlin,Lichtenberg,Frankfurter Allee,151,10365
264,114741,11,0,7,7,2018,6,14,7,3,6,4,0,1,1,1,0,0,0,0,13.354705405167376,52.48545423637346,"{'City': 'Berlin', 'District': 'Schöneberg', 'Street': 'Hauptstraße', 'HouseNumber': '27', 'PostalCode': '10827'}",Berlin,Schöneberg,Hauptstraße,27,10827
265,114742,11,0,1,1,2018,5,13,3,3,0,2,0,1,1,0,0,0,0,0,13.368927986215894,52.50741708705599,"{'City': 'Berlin', 'District': 'Tiergarten', 'Street': 'Potsdamer Straße', 'HouseNumber': '', 'PostalCode': '10785'}",Berlin,Tiergarten,Potsdamer Straße,,10785
266,114745,11,0,1,1,2018,2,19,1,3,5,3,2,1,1,0,0,0,0,0,13.419878955219366,52.524898606627595,"{'City': 'Berlin', 'District': 'Mitte', 'Street': 'Otto-Braun-Straße', 'HouseNumber': '', 'PostalCode': '10178'}",Berlin,Mitte,Otto-Braun-Straße,,10178
267,114747,11,0,1,1,2018,4,15,4,3,5,2,0,1,1,0,0,0,0,0,13.416384430669838,52.52200439890182,"{'City': 'Berlin', 'District': 'Mitte', 'Street': 'Tunnel Alexanderplatz', 'HouseNumber': '', 'PostalCode': '10178'}",Berlin,Mitte,Tunnel Alexanderplatz,,10178
268,114751,11,0,1,1,2018,2,12,6,3,2,6,0,1,1,0,0,0,0,0,13.405172028980889,52.52031905678561,"{'City': 'Berlin', 'District': 'Mitte', 'Street': 'Karl-Liebknecht-Straße', 'HouseNumber': '', 'PostalCode': '10178'}",Berlin,Mitte,Karl-Liebknecht-Straße,,10178
269,114753,11,0,12,12,2018,9,11,7,3,1,6,0,1,0,0,1,0,0,0,13.363616348941065,52.56533568340928,"{'City': 'Berlin', 'District': 'Reinickendorf', 'Street': 'Residenzstraße', 'HouseNumber': '117', 'PostalCode': '13409'}",Berlin,Reinickendorf,Residenzstraße,117,13409
270,114754,11,0,3,3,2018,8,7,6,3,2,2,0,1,1,0,0,0,0,0,13.413760751856175,52.55077651690936,"{'City': 'Berlin', 'District': 'Prenzlauer Berg', 'Street': 'Schönhauser Allee', 'HouseNumber': '', 'PostalCode': '10439'}",Berlin,Prenzlauer Berg,Schönhauser Allee,,10439
271,114756,11,0,3,3,2018,3,11,1,3,5,2,0,1,1,0,0,0,0,0,13.403080317073542,52.594545041580396,"{'City': 'Berlin', 'District': 'Rosenthal', 'Street': 'Dietzgenstraße', 'HouseNumber': '128', 'PostalCode': '13158'}",Berlin,Rosenthal,Dietzgenstraße,128,13158
272,114757,11,0,3,3,2018,6,5,7,3,5,3,0,1,1,0,0,0,0,0,13.428383179217425,52.532373108317564,"{'City': 'Berlin', 'District': 'Prenzlauer Berg', 'Street': 'Greifswalder Straße', 'HouseNumber': '209', 'PostalCode': '10405'}",Berlin,Prenzlauer Berg,Greifswalder Straße,209,10405
273,114758,11,0,3,3,2018,6,18,2,2,5,3,0,1,0,0,1,0,0,0,13.448082033497885,52.54713954061938,"{'City': 'Berlin', 'District': 'Weißensee', 'Street': 'Berliner Allee', 'HouseNumber': '3', 'PostalCode': '13088'}",Berlin,Weißensee,Berliner Allee,3,13088
274,114762,11,0,3,3,2018,12,19,7,3,0,2,2,1,1,0,0,0,0,0,13.438986252172157,52.54108118776515,"{'City': 'Berlin', 'District': 'Prenzlauer Berg', 'Street': 'Greifswalder Straße', 'HouseNumber': '', 'PostalCode': '10409'}",Berlin,Prenzlauer Berg,Greifswalder Straße,,10409
275,114763,11,0,4,4,2018,9,17,6,3,5,3,0,1,1,0,0,0,0,0,13.29991342518455,52.51124603313613,"{'City': 'Berlin', 'District': 'Charlottenburg', 'Street': 'Bismarckstraße', 'HouseNumber': '72', 'PostalCode': '10627'}",Berlin,Charlottenburg,Bismarckstraße,72,10627
276,114765,11,0,10,10,2018,2,15,6,3,5,2,0,1,1,0,0,0,0,0,13.553046332024808,52.50905533903587,"{'City': 'Berlin', 'District': 'Biesdorf', 'Street': '', 'HouseNumber': '', 'PostalCode': '12683'}",Berlin,Biesdorf,,,12683
277,114767,11,0,1,1,2018,6,8,2,2,0,7,0,1,0,0,0,0,0,0,13.369664293454997,52.54314561114259,"{'City': 'Berlin', 'District': 'Wedding', 'Street': 'Reinickendorfer Straße', 'HouseNumber': '114', 'PostalCode': '13347'}",Berlin,Wedding,Reinickendorfer Straße,114,13347
278,114770,11,0,1,1,2018,8,9,5,3,2,2,0,1,1,0,0,0,0,0,13.369750690444988,52.51582536282124,"{'City': 'Berlin', 'District': 'Tiergarten', 'Street': 'Yitzhak-Rabin-Straße', 'HouseNumber': '', 'PostalCode': '10785'}",Berlin,Tiergarten,Yitzhak-Rabin-Straße,,10785
279,114775,11,0,4,4,2018,2,17,6,3,5,2,0,1,1,0,0,0,0,0,13.302955613334502,52.51125502082257,"{'City': 'Berlin', 'District': 'Charlottenburg', 'Street': 'Bismarckstraße', 'HouseNumber': '53', 'PostalCode': '10627'}",Berlin,Charlottenburg,Bismarckstraße,53,10627
280,114776,11,0,3,3,2018,11,16,3,2,5,3,1,1,1,0,0,0,0,0,13.428701795304807,52.55855658906669,"{'City': 'Berlin', 'District': 'Pankow', 'Street': 'Prenzlauer Promenade', 'HouseNumber': '', 'PostalCode': '13189'}",Berlin,Pankow,Prenzlauer Promenade,,13189
281,114777,11,0,9,9,2018,9,11,1,2,5,3,0,1,1,0,0,0,0,0,13.46112965569958,52.492307423667675,"{'City': 'Berlin', 'District': 'Alt-Treptow', 'Street': 'Puschkinallee', 'HouseNumber': '', 'PostalCode': '12435'}",Berlin,Alt-Treptow,Puschkinallee,,12435
282,114782,11,0,1,1,2018,8,12,5,3,5,2,0,1,0,0,1,0,0,0,13.419900432224287,52.52545321343032,"{'City': 'Berlin', 'District': 'Prenzlauer Berg', 'Street': 'Otto-Braun-Straße', 'HouseNumber': '', 'PostalCode': '10405'}",Berlin,Prenzlauer Berg,Otto-Braun-Straße,,10405
283,114783,11,0,6,6,2018,5,10,6,3,5,3,0,1,1,0,0,0,0,0,13.28112249400166,52.44146929641476,"{'City': 'Berlin', 'District': 'Zehlendorf', 'Street': 'Schützallee', 'HouseNumber': '', 'PostalCode': '14169'}",Berlin,Zehlendorf,Schützallee,,14169
284,114789,11,0,4,4,2018,3,10,4,2,0,7,0,1,0,1,0,0,0,0,13.281227536109357,52.51005476263687,"{'City': 'Berlin', 'District': 'Westend', 'Street': 'Kaiserdamm', 'HouseNumber': '26', 'PostalCode': '14057'}",Berlin,Westend,Kaiserdamm,26,14057
285,114793,11,0,11,11,2018,11,14,7,3,5,3,0,1,1,0,0,0,0,0,13.47674151124351,52.51343561444934,"{'City': 'Berlin', 'District': 'Friedrichshain', 'Street': 'Frankfurter Allee', 'HouseNumber': '118', 'PostalCode': '10247'}",Berlin,Friedrichshain,Frankfurter Allee,118,10247
286,114794,11,0,7,7,2018,9,14,2,2,6,4,0,1,0,1,0,0,0,0,13.385491800461509,52.467441711152865,"{'City': 'Berlin', 'District': 'Tempelhof', 'Street': 'Tempelhofer Damm', 'HouseNumber': '134', 'PostalCode': '12099'}",Berlin,Tempelhof,Tempelhofer Damm,134,12099
287,114798,11,0,3,3,2018,10,18,3,3,5,2,2,1,1,0,0,0,0,0,13.41234868278714,52.54142555502964,"{'City': 'Berlin', 'District': 'Prenzlauer Berg', 'Street': 'Schönhauser Allee', 'HouseNumber': '', 'PostalCode': '10437'}",Berlin,Prenzlauer Berg,Schönhauser Allee,,10437
288,114799,11,0,1,1,2018,6,9,5,3,1,5,0,1,0,0,0,1,0,0,13.416859366576745,52.52271066477545,"{'City': 'Berlin', 'District': 'Mitte', 'Street': 'Otto-Braun-Straße', 'HouseNumber': '', 'PostalCode': '10178'}",Berlin,Mitte,Otto-Braun-Straße,,10178
289,114800,11,0,2,2,2018,8,22,6,3,6,4,2,1,0,1,0,0,0,0,13.447118152033141,52.50305913727316,"{'City': 'Berlin', 'District': 'Friedrichshain', 'Street': 'Warschauer Straße', 'HouseNumber': '', 'PostalCode': '10243'}",Berlin,Friedrichshain,Warschauer Straße,,10243
290,114802,11,0,7,7,2018,4,13,7,3,5,3,0,1,1,0,0,0,0,0,13.385584869865108,52.46374887716224,"{'City': 'Berlin', 'District': 'Tempelhof', 'Street': 'Tempelhofer Damm', 'HouseNumber': '160', 'PostalCode': '12099'}",Berlin,Tempelhof,Tempelhofer Damm,160,12099
291,114803,11,0,11,11,2018,6,14,6,3,5,3,0,1,1,0,0,0,0,0,13.484384383340315,52.51280563140764,"{'City': 'Berlin', 'District': 'Lichtenberg', 'Street': 'Ruschestraße', 'HouseNumber': '', 'PostalCode': '10367'}",Berlin,Lichtenberg,Ruschestraße,,10367
292,114804,11,0,1,1,2018,12,15,6,3,5,2,1,1,1,0,0,0,0,1,13.364876602530632,52.50214179178785,"{'City': 'Berlin', 'District': 'Tiergarten', 'Street': 'Potsdamer Straße', 'HouseNumber': '94', 'PostalCode': '10785'}",Berlin,Tiergarten,Potsdamer Straße,94,10785
293,114806,11,0,2,2,2018,9,15,3,3,0,1,0,1,0,0,0,0,0,0,13.453755271678853,52.5158844085775,"{'City': 'Berlin', 'District': 'Friedrichshain', 'Street': 'Frankfurter Tor', 'HouseNumber': '', 'PostalCode': '10243'}",Berlin,Friedrichshain,Frankfurter Tor,,10243
294,114817,11,0,1,1,2018,5,11,2,3,5,2,0,1,1,0,0,0,0,0,13.386094169587192,52.510126747191826,"{'City': 'Berlin', 'District': 'Mitte', 'Street': 'Leipziger Straße', 'HouseNumber': '115', 'PostalCode': '10117'}",Berlin,Mitte,Leipziger Straße,115,10117
295,114821,11,0,12,12,2018,9,16,4,3,6,4,0,1,0,1,0,0,0,0,13.361407429664776,52.56920326071679,"{'City': 'Berlin', 'District': 'Reinickendorf', 'Street': 'Residenzstraße', 'HouseNumber': '26A', 'PostalCode': '13409'}",Berlin,Reinickendorf,Residenzstraße,26A,13409
296,114823,11,0,4,4,2018,6,14,5,3,3,6,0,1,1,0,0,0,0,0,13.269083361524501,52.5091693833508,"{'City': 'Berlin', 'District': 'Westend', 'Street': 'Heerstraße', 'HouseNumber': '', 'PostalCode': '14052'}",Berlin,Westend,Heerstraße,,14052
297,114824,11,0,6,6,2018,7,15,3,3,5,3,0,1,1,0,0,0,0,0,13.240194839371128,52.43321239214175,"{'City': 'Berlin', 'District': 'Zehlendorf', 'Street': 'Hohentwielsteig', 'HouseNumber': '', 'PostalCode': '14163'}",Berlin,Zehlendorf,Hohentwielsteig,,14163
298,114826,11,0,6,6,2018,11,9,7,3,5,7,0,1,0,0,0,0,0,0,13.226771162485141,52.43032600237522,"{'City': 'Berlin', 'District': 'Zehlendorf', 'Street': 'Potsdamer Chaussee', 'HouseNumber': '20', 'PostalCode': '14163'}",Berlin,Zehlendorf,Potsdamer Chaussee,20,14163
299,114830,11,0,2,2,2018,10,18,5,3,3,6,1,1,0,0,0,0,0,0,13.452448902294531,52.511640384197534,"{'City': 'Berlin', 'District': 'Friedrichshain', 'Street': 'Warschauer Straße', 'HouseNumber': '69', 'PostalCode': '10243'}",Berlin,Friedrichshain,Warschauer Straße,69,10243
300,114833,11,0,3,3,2018,4,9,4,3,5,2,0,1,1,0,0,0,0,0,13.414505110864656,52.54061767584684,"{'City': 'Berlin', 'District': 'Prenzlauer Berg', 'Street': 'Danziger Straße', 'HouseNumber': '', 'PostalCode': '10435'}",Berlin,Prenzlauer Berg,Danziger Straße,,10435
301,114835,11,0,2,2,2018,3,8,5,3,5,3,0,1,1,0,0,0,0,1,13.436527470777667,52.51764210481606,"{'City': 'Berlin', 'District': 'Friedrichshain', 'Street': 'Karl-Marx-Allee', 'HouseNumber': '', 'PostalCode': '10243'}",Berlin,Friedrichshain,Karl-Marx-Allee,,10243
302,114838,11,0,1,1,2018,2,11,5,3,2,6,0,1,1,0,0,0,0,0,13.337355085776709,52.51370226353937,"{'City': 'Berlin', 'District': 'Hansaviertel', 'Street': 'Straße des 17. Juni', 'HouseNumber': '', 'PostalCode': '10557'}",Berlin,Hansaviertel,Straße des 17. Juni,,10557
303,114842,11,0,10,10,2018,6,18,6,3,5,2,0,1,1,0,0,0,0,1,13.598681585739516,52.50501988382355,"{'City': 'Berlin', 'District': 'Kaulsdorf', 'Street': 'Alt-Kaulsdorf', 'HouseNumber': '', 'PostalCode': '12621'}",Berlin,Kaulsdorf,Alt-Kaulsdorf,,12621
304,114847,11,0,1,1,2018,5,11,5,3,0,6,0,1,1,0,0,0,0,0,13.404265016502487,52.51984365996657,"{'City': 'Berlin', 'District': 'Mitte', 'Street': 'Karl-Liebknecht-Straße', 'HouseNumber': '5', 'PostalCode': '10178'}",Berlin,Mitte,Karl-Liebknecht-Straße,5,10178
305,114848,11,0,3,3,2018,4,19,3,3,3,6,1,1,1,0,0,0,0,0,13.44469550363719,52.5289660895977,"{'City': 'Berlin', 'District': 'Prenzlauer Berg', 'Street': 'Danziger Straße', 'HouseNumber': '215', 'PostalCode': '10407'}",Berlin,Prenzlauer Berg,Danziger Straße,215,10407
306,114849,11,0,4,4,2018,12,9,6,2,5,2,0,1,0,0,0,1,0,0,13.30138012619489,52.51115230204537,"{'City': 'Berlin', 'District': 'Charlottenburg', 'Street': 'Bismarckstraße', 'HouseNumber': '', 'PostalCode': '10627'}",Berlin,Charlottenburg,Bismarckstraße,,10627
307,114855,11,0,1,1,2018,5,22,5,2,6,7,2,1,0,1,0,0,0,0,13.372244189316682,52.515989634093934,"{'City': 'Berlin', 'District': 'Tiergarten', 'Street': 'Straße des 17. Juni', 'HouseNumber': '', 'PostalCode': '10785'}",Berlin,Tiergarten,Straße des 17. Juni,,10785
308,114865,11,0,7,7,2018,5,12,5,3,1,5,0,1,1,0,0,0,1,0,13.35517824929979,52.485680343853026,"{'City': 'Berlin', 'District': 'Schöneberg', 'Street': 'Hauptstraße', 'HouseNumber': '25', 'PostalCode': '10827'}",Berlin,Schöneberg,Hauptstraße,25,10827
309,114868,11,0,1,1,2018,9,18,2,3,0,6,1,1,1,0,0,0,0,0,13.407845277395174,52.51563721059421,"{'City': 'Berlin', 'District': 'Mitte', 'Street': 'Mühlendamm', 'HouseNumber': '3', 'PostalCode': '10178'}",Berlin,Mitte,Mühlendamm,3,10178
310,114869,11,0,3,3,2018,6,15,1,3,3,6,0,1,0,0,0,0,0,0,13.381590009858874,52.63199211973271,"{'City': 'Berlin', 'District': 'Blankenfelde', 'Street': 'Schildower Straße', 'HouseNumber': '', 'PostalCode': '13159'}",Berlin,Blankenfelde,Schildower Straße,,13159
311,114871,11,0,11,11,2018,5,18,6,3,3,6,0,1,0,0,0,0,1,0,13.493568967437053,52.5117051920672,"{'City': 'Berlin', 'District': 'Lichtenberg', 'Street': 'Frankfurter Allee', 'HouseNumber': '214', 'PostalCode': '10365'}",Berlin,Lichtenberg,Frankfurter Allee,214,10365
312,114875,11,0,4,4,2018,7,17,6,3,5,2,0,1,1,0,0,0,0,0,13.299639192025513,52.511036088434025,"{'City': 'Berlin', 'District': 'Charlottenburg', 'Street': 'Bismarckstraße', 'HouseNumber': '71', 'PostalCode': '10627'}",Berlin,Charlottenburg,Bismarckstraße,71,10627
313,114877,11,0,2,2,2018,5,8,6,2,2,1,0,1,1,0,0,0,0,0,13.46319447223055,52.51480586002036,"{'City': 'Berlin', 'District': 'Friedrichshain', 'Street': 'Frankfurter Allee', 'HouseNumber': '42', 'PostalCode': '10247'}",Berlin,Friedrichshain,Frankfurter Allee,42,10247
314,114880,11,0,3,3,2018,11,17,5,3,6,4,2,1,0,1,0,0,0,0,13.428549508358314,52.53212465853535,"{'City': 'Berlin', 'District': 'Prenzlauer Berg', 'Street': 'Greifswalder Straße', 'HouseNumber': '28', 'PostalCode': '10405'}",Berlin,Prenzlauer Berg,Greifswalder Straße,28,10405
315,114886,11,0,7,7,2018,4,17,6,3,6,7,0,1,0,1,0,0,0,0,13.392453689964745,52.43022763418427,"{'City': 'Berlin', 'District': 'Mariendorf', 'Street': 'Mariendorfer Damm', 'HouseNumber': '233', 'PostalCode': '12107'}",Berlin,Mariendorf,Mariendorfer Damm,233,12107
316,114892,11,0,2,2,2018,7,0,6,3,5,2,2,1,1,0,0,0,0,0,13.467595223080389,52.51435236461586,"{'City': 'Berlin', 'District': 'Friedrichshain', 'Street': '', 'HouseNumber': '', 'PostalCode': '10247'}",Berlin,Friedrichshain,,,10247
317,114900,11,0,2,2,2018,4,13,1,3,5,3,0,1,1,0,0,0,0,1,13.452502403693398,52.51837212391358,"{'City': 'Berlin', 'District': 'Friedrichshain', 'Street': 'Bersarinplatz', 'HouseNumber': '', 'PostalCode': '10249'}",Berlin,Friedrichshain,Bersarinplatz,,10249
318,114901,11,0,11,11,2018,5,7,2,3,5,2,0,1,0,0,0,1,0,0,13.476975534158825,52.51356195934837,"{'City': 'Berlin', 'District': 'Friedrichshain', 'Street': 'Frankfurter Allee', 'HouseNumber': '117', 'PostalCode': '10365'}",Berlin,Friedrichshain,Frankfurter Allee,117,10365
319,114902,11,0,2,2,2018,10,17,3,3,5,2,1,1,1,0,0,0,0,1,13.451454940653422,52.509464490405364,"{'City': 'Berlin', 'District': 'Friedrichshain', 'Street': 'Warschauer Straße', 'HouseNumber': '59A', 'PostalCode': '10243'}",Berlin,Friedrichshain,Warschauer Straße,59A,10243
320,114903,11,0,7,7,2018,2,17,5,2,5,2,2,1,1,0,0,0,0,0,13.38582266428915,52.48316918137655,"{'City': 'Berlin', 'District': 'Tempelhof', 'Street': 'Platz der Luftbrücke', 'HouseNumber': '', 'PostalCode': '12101'}",Berlin,Tempelhof,Platz der Luftbrücke,,12101
321,114908,11,0,2,2,2018,7,14,3,3,6,4,0,1,0,1,0,0,0,0,13.453597610512501,52.51756246874168,"{'City': 'Berlin', 'District': 'Friedrichshain', 'Street': 'Petersburger Straße', 'HouseNumber': '89', 'PostalCode': '10247'}",Berlin,Friedrichshain,Petersburger Straße,89,10247
322,114910,11,0,1,1,2018,6,9,5,3,6,4,0,1,0,1,0,0,0,0,13.386644047212107,52.516729880221064,"{'City': 'Berlin', 'District': 'Mitte', 'Street': 'Unter den Linden', 'HouseNumber': '', 'PostalCode': '10117'}",Berlin,Mitte,Unter den Linden,,10117
323,114912,11,0,3,3,2018,4,12,1,3,5,3,0,1,1,0,0,0,0,0,13.398435277118045,52.576844958229884,"{'City': 'Berlin', 'District': 'Niederschönhausen', 'Street': 'Tschaikowskistraße', 'HouseNumber': '', 'PostalCode': '13156'}",Berlin,Niederschönhausen,Tschaikowskistraße,,13156
324,114917,11,0,4,4,2018,4,16,3,3,5,2,0,1,1,0,0,0,0,0,13.314660679666229,52.51201854415506,"{'City': 'Berlin', 'District': 'Charlottenburg', 'Street': 'Leibnizstraße', 'HouseNumber': '', 'PostalCode': '10625'}",Berlin,Charlottenburg,Leibnizstraße,,10625
325,114922,11,0,2,2,2018,2,11,4,3,3,6,0,1,1,0,0,0,0,0,13.45291069554986,52.51268446007647,"{'City': 'Berlin', 'District': 'Friedrichshain', 'Street': 'Warschauer Straße', 'HouseNumber': '74', 'PostalCode': '10243'}",Berlin,Friedrichshain,Warschauer Straße,74,10243
326,114925,11,0,12,12,2018,8,16,4,3,0,7,0,1,1,0,0,0,0,0,13.313270670960133,52.62112465595748,"{'City': 'Berlin', 'District': 'Hermsdorf', 'Street': 'Berliner Straße', 'HouseNumber': '102', 'PostalCode': '13467'}",Berlin,Hermsdorf,Berliner Straße,102,13467
327,114927,11,0,1,1,2018,6,18,6,2,0,6,0,1,0,0,0,0,0,0,13.425568404124412,52.519397772435816,"{'City': 'Berlin', 'District': 'Mitte', 'Street': 'Karl-Marx-Allee', 'HouseNumber': '47', 'PostalCode': '10178'}",Berlin,Mitte,Karl-Marx-Allee,47,10178
328,114930,11,0,9,9,2018,5,10,4,3,5,3,0,1,0,0,0,0,0,0,13.463352491122288,52.49164161955055,"{'City': 'Berlin', 'District': 'Alt-Treptow', 'Street': 'Puschkinallee', 'HouseNumber': '', 'PostalCode': '12435'}",Berlin,Alt-Treptow,Puschkinallee,,12435
329,114942,11,0,6,6,2018,10,14,1,3,1,5,0,1,1,0,0,0,1,0,13.154963789931987,52.41898829910322,"{'City': 'Berlin', 'District': 'Wannsee', 'Street': 'Königstraße', 'HouseNumber': '53', 'PostalCode': '14109'}",Berlin,Wannsee,Königstraße,53,14109
330,114947,11,0,11,11,2018,12,13,4,3,5,3,0,1,1,0,0,0,0,0,13.534983253545898,52.51033049569816,"{'City': 'Berlin', 'District': 'Friedrichsfelde', 'Street': 'Alt-Friedrichsfelde', 'HouseNumber': '65C', 'PostalCode': '10315'}",Berlin,Friedrichsfelde,Alt-Friedrichsfelde,65C,10315
331,114948,11,0,2,2,2018,9,1,6,3,8,1,2,1,0,0,0,0,0,0,13.451247742891018,52.50902579816371,"{'City': 'Berlin', 'District': 'Friedrichshain', 'Street': 'Warschauer Straße', 'HouseNumber': '', 'PostalCode': '10243'}",Berlin,Friedrichshain,Warschauer Straße,,10243
332,114951,11,0,11,11,2018,7,7,5,3,5,2,0,1,1,0,0,0,0,0,13.483306257390572,52.58306016667867,"{'City': 'Berlin', 'District': 'Malchow', 'Street': 'Bundesstraße 2', 'HouseNumber': '', 'PostalCode': '13051'}",Berlin,Malchow,Bundesstraße 2,,13051
333,114955,11,0,7,7,2018,12,19,2,3,6,4,2,1,0,1,0,0,0,1,13.388018214915547,52.43787375902378,"{'City': 'Berlin', 'District': 'Mariendorf', 'Street': 'Mariendorfer Damm', 'HouseNumber': '155', 'PostalCode': '12107'}",Berlin,Mariendorf,Mariendorfer Damm,155,12107
334,114969,11,0,2,2,2018,5,15,1,3,0,2,0,1,1,0,0,0,0,0,13.460261296140349,52.51524161302882,"{'City': 'Berlin', 'District': 'Friedrichshain', 'Street': 'Frankfurter Allee', 'HouseNumber': '', 'PostalCode': '10247'}",Berlin,Friedrichshain,Frankfurter Allee,,10247
335,114975,11,0,3,3,2018,7,15,4,3,0,1,0,1,0,0,0,0,0,0,13.428233329388616,52.56031213581698,"{'City': 'Berlin', 'District': 'Pankow', 'Street': 'Prenzlauer Promenade', 'HouseNumber': '', 'PostalCode': '13189'}",Berlin,Pankow,Prenzlauer Promenade,,13189
336,114976,11,0,6,6,2018,3,17,1,3,2,6,0,1,1,0,0,0,0,0,13.094676444820616,52.413352574911606,"{'City': 'Berlin', 'District': 'Wannsee', 'Street': 'Königstraße', 'HouseNumber': '', 'PostalCode': '14109'}",Berlin,Wannsee,Königstraße,,14109
337,114977,11,0,1,1,2018,5,15,1,3,6,4,0,1,0,1,0,0,0,0,13.368821647969748,52.540810006923564,"{'City': 'Berlin', 'District': 'Wedding', 'Street': '', 'HouseNumber': '', 'PostalCode': '13353'}",Berlin,Wedding,,,13353
338,114986,11,0,1,1,2018,11,17,6,2,6,4,2,1,0,1,0,0,0,1,13.366148632508203,52.55452139494059,"{'City': 'Berlin', 'District': 'Wedding', 'Street': '', 'HouseNumber': '', 'PostalCode': '13347'}",Berlin,Wedding,,,13347
339,114992,11,0,3,3,2018,5,8,2,3,5,2,0,1,1,0,0,0,0,0,13.390410184993998,52.61848997883356,"{'City': 'Berlin', 'District': 'Blankenfelde', 'Street': 'Blankenfelder Chaussee', 'HouseNumber': '', 'PostalCode': '13159'}",Berlin,Blankenfelde,Blankenfelder Chaussee,,13159
340,114997,11,0,10,10,2018,7,20,1,2,3,6,1,1,1,0,0,0,0,0,13.552768801615297,52.50935801363705,"{'City': 'Berlin', 'District': 'Biesdorf', 'Street': 'Alt-Biesdorf', 'HouseNumber': '64A', 'PostalCode': '12683'}",Berlin,Biesdorf,Alt-Biesdorf,64A,12683
341,115005,11,0,1,1,2018,9,17,5,3,3,6,0,1,1,0,0,0,0,0,13.3640439777015,52.50117922072501,"{'City': 'Berlin', 'District': 'Tiergarten', 'Street': 'Potsdamer Straße', 'HouseNumber': '104', 'PostalCode': '10785'}",Berlin,Tiergarten,Potsdamer Straße,104,10785
342,115010,11,0,3,3,2018,8,2,1,3,1,5,2,1,1,0,0,0,0,0,13.405845926882103,52.56628477458256,"{'City': 'Berlin', 'District': 'Pankow', 'Street': 'Mühlenstraße', 'HouseNumber': '17', 'PostalCode': '13187'}",Berlin,Pankow,Mühlenstraße,17,13187
343,115011,11,0,2,2,2018,5,8,4,3,5,2,0,1,1,0,0,0,0,0,13.46758290028435,52.51450636932357,"{'City': 'Berlin', 'District': 'Friedrichshain', 'Street': '', 'HouseNumber': '', 'PostalCode': '10247'}",Berlin,Friedrichshain,,,10247
344,115014,11,0,6,6,2018,9,13,3,2,6,7,0,1,0,1,0,0,0,0,13.292652639804171,52.44545716357315,"{'City': 'Berlin', 'District': 'Lichterfelde', 'Street': 'Unter den Eichen', 'HouseNumber': '67', 'PostalCode': '12205'}",Berlin,Lichterfelde,Unter den Eichen,67,12205
345,115018,11,0,2,2,2018,5,13,4,2,3,6,0,1,1,0,0,0,0,0,13.381653881609362,52.499181432449085,"{'City': 'Berlin', 'District': 'Kreuzberg', 'Street': 'Hallesches Ufer', 'HouseNumber': '62', 'PostalCode': '10963'}",Berlin,Kreuzberg,Hallesches Ufer,62,10963
346,115019,11,0,2,2,2018,2,8,3,3,0,2,0,1,1,0,0,0,0,2,13.389497370117732,52.4965507548705,"{'City': 'Berlin', 'District': 'Kreuzberg', 'Street': 'Mehringdamm', 'HouseNumber': '13', 'PostalCode': '10961'}",Berlin,Kreuzberg,Mehringdamm,13,10961
347,115020,11,0,11,11,2018,11,12,2,2,5,3,0,1,0,0,0,0,0,0,13.484369699310324,52.5128070751643,"{'City': 'Berlin', 'District': 'Lichtenberg', 'Street': 'Ruschestraße', 'HouseNumber': '', 'PostalCode': '10367'}",Berlin,Lichtenberg,Ruschestraße,,10367
348,115027,11,0,11,11,2018,5,9,4,3,6,7,0,1,0,1,0,0,0,0,13.476366790631525,52.513616101411806,"{'City': 'Berlin', 'District': 'Friedrichshain', 'Street': 'Frankfurter Allee', 'HouseNumber': '116', 'PostalCode': '10247'}",Berlin,Friedrichshain,Frankfurter Allee,116,10247
349,115029,11,0,3,3,2018,12,17,4,3,5,3,2,1,1,0,0,0,0,1,13.425724859864296,52.529715806561605,"{'City': 'Berlin', 'District': 'Prenzlauer Berg', 'Street': 'Greifswalder Straße', 'HouseNumber': '9', 'PostalCode': '10405'}",Berlin,Prenzlauer Berg,Greifswalder Straße,9,10405
350,115030,11,0,2,2,2018,9,11,5,3,5,2,0,1,0,0,0,0,0,0,13.443035579913083,52.51683937419312,"{'City': 'Berlin', 'District': 'Friedrichshain', 'Street': '', 'HouseNumber': '', 'PostalCode': '10243'}",Berlin,Friedrichshain,,,10243
351,115031,11,0,4,4,2018,8,15,6,3,5,2,0,1,1,0,0,0,0,0,13.306222978358937,52.51166006819319,"{'City': 'Berlin', 'District': 'Charlottenburg', 'Street': 'Bismarckstraße', 'HouseNumber': '42', 'PostalCode': '10627'}",Berlin,Charlottenburg,Bismarckstraße,42,10627
352,115032,11,0,1,1,2018,6,18,6,3,3,6,0,1,1,0,0,0,0,0,13.385631588715244,52.51009853791309,"{'City': 'Berlin', 'District': 'Mitte', 'Street': 'Leipziger Straße', 'HouseNumber': '13', 'PostalCode': '10117'}",Berlin,Mitte,Leipziger Straße,13,10117
353,115033,11,0,3,3,2018,7,18,5,3,3,6,0,1,1,0,0,0,0,0,13.403898681505755,52.56884582245722,"{'City': 'Berlin', 'District': 'Pankow', 'Street': 'Mühlenstraße', 'HouseNumber': '2', 'PostalCode': '13187'}",Berlin,Pankow,Mühlenstraße,2,13187
354,115035,11,0,1,1,2018,2,7,3,3,2,2,0,1,1,0,0,0,0,0,13.367356030773577,52.5516892363383,"{'City': 'Berlin', 'District': 'Wedding', 'Street': 'Nauener Platz', 'HouseNumber': '', 'PostalCode': '13347'}",Berlin,Wedding,Nauener Platz,,13347
355,115047,11,0,1,1,2018,9,13,2,1,5,2,0,1,0,0,0,1,0,0,13.420332800394238,52.52528444520494,"{'City': 'Berlin', 'District': 'Mitte', 'Street': 'Mollstraße', 'HouseNumber': '', 'PostalCode': '10249'}",Berlin,Mitte,Mollstraße,,10249
356,115051,11,0,1,1,2018,6,15,3,3,5,5,0,1,0,0,0,0,1,0,13.369181613005448,52.54727255103563,"{'City': 'Berlin', 'District': 'Wedding', 'Street': 'Reinickendorfer Straße', 'HouseNumber': '98', 'PostalCode': '13347'}",Berlin,Wedding,Reinickendorfer Straße,98,13347
357,115060,11,0,10,10,2018,5,13,7,2,5,3,0,1,1,0,0,0,0,0,13.617820190071567,52.50465209491336,"{'City': 'Berlin', 'District': 'Mahlsdorf', 'Street': 'Alt-Mahlsdorf', 'HouseNumber': '43', 'PostalCode': '12623'}",Berlin,Mahlsdorf,Alt-Mahlsdorf,43,12623
358,115062,11,0,3,3,2018,2,22,2,3,0,7,2,1,0,0,0,0,0,0,13.431404303096492,52.536605639210926,"{'City': 'Berlin', 'District': 'Prenzlauer Berg', 'Street': 'Danziger Straße', 'HouseNumber': '112', 'PostalCode': '10405'}",Berlin,Prenzlauer Berg,Danziger Straße,112,10405
359,115064,11,0,2,2,2018,9,15,3,3,3,6,0,1,1,0,0,0,0,0,13.441887333830465,52.516955295708954,"{'City': 'Berlin', 'District': 'Friedrichshain', 'Street': 'Karl-Marx-Allee', 'HouseNumber': '94', 'PostalCode': '10243'}",Berlin,Friedrichshain,Karl-Marx-Allee,94,10243
360,115067,11,0,3,3,2018,6,12,4,3,0,7,0,1,0,0,0,0,0,0,13.41393336830855,52.5497652039232,"{'City': 'Berlin', 'District': 'Prenzlauer Berg', 'Street': 'Schönhauser Allee', 'HouseNumber': '79', 'PostalCode': '10439'}",Berlin,Prenzlauer Berg,Schönhauser Allee,79,10439
361,115069,11,0,3,3,2018,6,19,5,3,0,1,0,1,0,0,0,0,0,0,13.399126218904081,52.57336751646518,"{'City': 'Berlin', 'District': 'Niederschönhausen', 'Street': 'Grabbeallee', 'HouseNumber': '20', 'PostalCode': '13156'}",Berlin,Niederschönhausen,Grabbeallee,20,13156
362,115071,11,0,12,12,2018,4,11,2,3,5,3,0,1,1,0,0,0,0,0,13.312101829075738,52.625025764960284,"{'City': 'Berlin', 'District': 'Hermsdorf', 'Street': 'Berliner Straße', 'HouseNumber': '56', 'PostalCode': '13467'}",Berlin,Hermsdorf,Berliner Straße,56,13467
363,115072,11,0,1,1,2018,4,15,1,3,5,2,0,1,1,0,0,0,0,0,13.419823970401465,52.525389096957646,"{'City': 'Berlin', 'District': 'Prenzlauer Berg', 'Street': 'Otto-Braun-Straße', 'HouseNumber': '', 'PostalCode': '10405'}",Berlin,Prenzlauer Berg,Otto-Braun-Straße,,10405
364,115076,11,0,9,9,2018,6,18,4,2,4,6,0,1,0,0,0,0,0,0,13.493798512154173,52.467566832012594,"{'City': 'Berlin', 'District': 'Baumschulenweg', 'Street': 'Köpenicker Landstraße', 'HouseNumber': '267', 'PostalCode': '12437'}",Berlin,Baumschulenweg,Köpenicker Landstraße,267,12437
365,115087,11,0,7,7,2018,8,18,2,3,3,6,0,1,0,0,0,0,0,0,13.377684555746379,52.43354876456689,"{'City': 'Berlin', 'District': 'Mariendorf', 'Street': 'Großbeerenstraße', 'HouseNumber': '77', 'PostalCode': '12107'}",Berlin,Mariendorf,Großbeerenstraße,77,12107
366,115095,11,0,1,1,2018,9,9,3,3,5,2,0,1,1,0,0,0,0,0,13.370236056340978,52.539929039619494,"{'City': 'Berlin', 'District': 'Wedding', 'Street': 'Sellerstraße', 'HouseNumber': '', 'PostalCode': '13353'}",Berlin,Wedding,Sellerstraße,,13353
367,115098,11,0,3,3,2018,7,16,2,3,3,6,0,1,1,0,0,0,0,0,13.398414316523441,52.57775913118543,"{'City': 'Berlin', 'District': 'Niederschönhausen', 'Street': 'Grabbeallee', 'HouseNumber': '64', 'PostalCode': '13156'}",Berlin,Niederschönhausen,Grabbeallee,64,13156
368,115099,11,0,1,1,2018,7,16,3,3,3,6,0,1,1,0,0,0,0,0,13.393772530580568,52.517256491987844,"{'City': 'Berlin', 'District': 'Mitte', 'Street': 'Bebelplatz', 'HouseNumber': '', 'PostalCode': '10117'}",Berlin,Mitte,Bebelplatz,,10117
369,115100,11,0,7,7,2018,5,15,3,3,3,6,0,1,1,0,0,0,0,0,13.384679465058477,52.460544474363445,"{'City': 'Berlin', 'District': 'Tempelhof', 'Street': 'Tempelhofer Damm', 'HouseNumber': '182', 'PostalCode': '12099'}",Berlin,Tempelhof,Tempelhofer Damm,182,12099
370,115107,11,0,2,2,2018,4,14,2,3,0,2,0,1,1,0,0,0,0,0,13.389259684027042,52.49750713662592,"{'City': 'Berlin', 'District': 'Kreuzberg', 'Street': 'Mehringdamm', 'HouseNumber': '', 'PostalCode': '10961'}",Berlin,Kreuzberg,Mehringdamm,,10961
371,115109,11,0,7,7,2018,5,18,3,3,5,5,0,1,1,0,0,0,0,0,13.357168111601899,52.48714405289545,"{'City': 'Berlin', 'District': 'Schöneberg', 'Street': 'Hauptstraße', 'HouseNumber': '17', 'PostalCode': '10827'}",Berlin,Schöneberg,Hauptstraße,17,10827
372,115110,11,0,4,4,2018,11,13,6,3,4,6,0,1,0,0,0,0,0,0,13.295586697423289,52.51077129930796,"{'City': 'Berlin', 'District': 'Charlottenburg', 'Street': 'Kaiserdamm', 'HouseNumber': '1', 'PostalCode': '14057'}",Berlin,Charlottenburg,Kaiserdamm,1,14057
373,115111,11,0,7,7,2018,12,19,2,2,0,7,2,1,1,0,0,0,0,0,13.354632653184044,52.485419848981145,"{'City': 'Berlin', 'District': 'Schöneberg', 'Street': 'Hauptstraße', 'HouseNumber': '27', 'PostalCode': '10827'}",Berlin,Schöneberg,Hauptstraße,27,10827
374,115113,11,0,1,1,2018,8,8,6,3,8,1,0,1,0,0,0,0,0,0,13.37186120146426,52.51583863457313,"{'City': 'Berlin', 'District': 'Tiergarten', 'Street': 'Straße des 17. Juni', 'HouseNumber': '', 'PostalCode': '10785'}",Berlin,Tiergarten,Straße des 17. Juni,,10785
375,115114,11,0,3,3,2018,6,10,6,3,5,3,0,1,1,0,0,0,0,0,13.402944489891013,52.56931642453762,"{'City': 'Berlin', 'District': 'Pankow', 'Street': 'Breite Straße', 'HouseNumber': '22', 'PostalCode': '13187'}",Berlin,Pankow,Breite Straße,22,13187
376,115121,11,0,7,7,2018,10,13,7,3,5,3,0,1,1,0,0,0,0,0,13.35695946229949,52.48691088369203,"{'City': 'Berlin', 'District': 'Schöneberg', 'Street': '', 'HouseNumber': '', 'PostalCode': '10827'}",Berlin,Schöneberg,,,10827
377,115125,11,0,1,1,2018,5,17,5,3,3,6,0,1,1,0,0,1,0,0,13.367020948956283,52.50446751723282,"{'City': 'Berlin', 'District': 'Tiergarten', 'Street': 'Potsdamer Straße', 'HouseNumber': '70', 'PostalCode': '10785'}",Berlin,Tiergarten,Potsdamer Straße,70,10785
378,115126,11,0,3,3,2018,10,6,5,3,5,3,2,1,0,0,1,0,0,1,13.437074078312273,52.539839699357216,"{'City': 'Berlin', 'District': 'Prenzlauer Berg', 'Street': 'Greifswalder Straße', 'HouseNumber': '', 'PostalCode': '10405'}",Berlin,Prenzlauer Berg,Greifswalder Straße,,10405
379,115128,11,0,11,11,2018,11,10,3,3,5,2,0,1,0,0,0,0,1,0,13.47667408692976,52.513441951554896,"{'City': 'Berlin', 'District': 'Friedrichshain', 'Street': 'Frankfurter Allee', 'HouseNumber': '118', 'PostalCode': '10247'}",Berlin,Friedrichshain,Frankfurter Allee,118,10247
380,115135,11,0,4,4,2018,8,10,4,3,6,4,0,1,0,1,0,0,0,0,13.314089543831782,52.51198105413719,"{'City': 'Berlin', 'District': 'Charlottenburg', 'Street': 'Bismarckstraße', 'HouseNumber': '104', 'PostalCode': '10625'}",Berlin,Charlottenburg,Bismarckstraße,104,10625
381,115137,11,0,7,7,2018,4,6,5,3,5,2,0,1,0,0,0,0,1,0,13.396272171888743,52.42349373967118,"{'City': 'Berlin', 'District': 'Mariendorf', 'Street': 'Mariendorfer Damm', 'HouseNumber': '', 'PostalCode': '12107'}",Berlin,Mariendorf,Mariendorfer Damm,,12107
382,115143,11,0,3,3,2018,3,17,4,3,2,6,2,1,1,0,0,0,0,0,13.451351073415552,52.548480919686,"{'City': 'Berlin', 'District': 'Weißensee', 'Street': 'Berliner Allee', 'HouseNumber': '39A', 'PostalCode': '13088'}",Berlin,Weißensee,Berliner Allee,39A,13088
383,115153,11,0,2,2,2018,8,15,6,3,5,2,0,1,1,0,0,0,0,0,13.452483410135534,52.518425038202174,"{'City': 'Berlin', 'District': 'Friedrichshain', 'Street': 'Bersarinplatz', 'HouseNumber': '', 'PostalCode': '10249'}",Berlin,Friedrichshain,Bersarinplatz,,10249
384,115154,11,0,3,3,2018,3,20,2,3,5,2,2,1,1,0,0,0,0,1,13.390551812867722,52.618601972015036,"{'City': 'Berlin', 'District': 'Blankenfelde', 'Street': 'Hauptstraße', 'HouseNumber': '', 'PostalCode': '13159'}",Berlin,Blankenfelde,Hauptstraße,,13159
385,115159,11,0,7,7,2018,9,12,2,2,5,3,0,1,0,0,0,1,0,0,13.3756848680153,52.429297310098136,"{'City': 'Berlin', 'District': 'Mariendorf', 'Street': 'Großbeerenstraße', 'HouseNumber': '164', 'PostalCode': '12277'}",Berlin,Mariendorf,Großbeerenstraße,164,12277
386,115161,11,0,2,2,2018,6,16,3,3,0,4,0,1,0,1,0,0,0,0,13.448600829100783,52.50503085599958,"{'City': 'Berlin', 'District': 'Friedrichshain', 'Street': 'Warschauer Straße', 'HouseNumber': '34', 'PostalCode': '10243'}",Berlin,Friedrichshain,Warschauer Straße,34,10243
387,115164,11,0,4,4,2018,2,18,6,2,6,4,2,1,0,1,0,0,0,0,13.297948724290144,52.510926206431826,"{'City': 'Berlin', 'District': 'Charlottenburg', 'Street': 'Bismarckstraße', 'HouseNumber': '', 'PostalCode': '10627'}",Berlin,Charlottenburg,Bismarckstraße,,10627
388,115167,11,0,6,6,2018,10,11,4,3,5,7,0,1,1,0,0,0,0,0,13.099439911342579,52.413805238344025,"{'City': 'Berlin', 'District': 'Wannsee', 'Street': '', 'HouseNumber': '', 'PostalCode': '14109'}",Berlin,Wannsee,,,14109
389,115168,11,0,7,7,2018,8,15,2,3,5,2,0,1,1,0,0,0,0,0,13.374585008857961,52.42716491834631,"{'City': 'Berlin', 'District': 'Marienfelde', 'Street': 'Großbeerenstraße', 'HouseNumber': '', 'PostalCode': '12277'}",Berlin,Marienfelde,Großbeerenstraße,,12277
390,115170,11,0,5,5,2018,4,11,2,3,0,7,0,1,0,0,0,0,0,0,13.206094566038637,52.511195308744426,"{'City': 'Berlin', 'District': 'Wilhelmstadt', 'Street': 'Heerstraße', 'HouseNumber': '193', 'PostalCode': '13595'}",Berlin,Wilhelmstadt,Heerstraße,193,13595
391,115176,11,0,3,3,2018,8,16,5,3,5,2,0,1,1,0,0,0,0,1,13.398984121379833,52.57341786617623,"{'City': 'Berlin', 'District': 'Niederschönhausen', 'Street': 'Homeyerstraße', 'HouseNumber': '', 'PostalCode': '13156'}",Berlin,Niederschönhausen,Homeyerstraße,,13156
392,115177,11,0,2,2,2018,6,19,5,3,0,7,0,1,0,0,0,0,0,0,13.448179007879382,52.52531706188345,"{'City': 'Berlin', 'District': 'Friedrichshain', 'Street': 'Petersburger Straße', 'HouseNumber': '', 'PostalCode': '10249'}",Berlin,Friedrichshain,Petersburger Straße,,10249
